name,category,lat,lon,country_code,rarity,floor_price_tdi,mint_difficulty,is_shiny,card_number,edition,token_id,tdc_per_24h,bonus_pct,game_resource,visitors_per_year,geopolitical_score,description,fun_fact,wiki_url,is_featured,source
Abu Dhabi Sheikh Zayed Mosque,religious_site,24.413,54.475,AE,uncommon,5.0,2,0,300,genesis,100300,25,40,culture,4500000,25,"World's 3rd largest mosque. 40,000 capacity. 82 domes. White marble.",,,1,seed
Abu Simbel,ancient_ruins,22.337,31.626,EG,uncommon,5.0,2,0,687,genesis,100687,25,45,culture,2250000,25,Ramesses II temples. Moved 64m uphill to save from Aswan flooding.,Sunlight hits inner sanctum on his birthday twice per year,https://upload.wikimedia.org/wikipedia/commons/thumb/0/04/Ramesses_II_at_Kadesh.jpg/640px-Ramesses_II_at_Kadesh.jpg,1,seed
Abu Simbel Temples,ancient_ruins,22.337,31.626,EG,uncommon,5.0,2,0,243,genesis,100243,25,45,culture,2250000,25,Ramesses II temples. Moved 64m uphill to save from Aswan Dam flooding.,Sunlight hits inner sanctum on Ramesses birthday twice/year,,1,seed
Al-Ula Hegra,ancient_ruins,26.81,37.95,SA,uncommon,5.0,2,0,750,genesis,100750,25,45,culture,2250000,25,Nabataean tombs. Pre-Islamic. Opened to tourists 2019 first time.,Isolated for 2000 years - more intact than Petra,https://upload.wikimedia.org/wikipedia/commons/thumb/d/d2/Hegra_tombs.jpg/640px-Hegra_tombs.jpg,1,seed
Amritsar Golden Temple,religious_site,31.62,74.876,IN,uncommon,5.0,2,0,790,genesis,100790,25,40,culture,4500000,25,"Harmandir Sahib. Holiest Sikh shrine. Langar feeds 100,000 free/day.",Feeds most people for free of any place on Earth,https://upload.wikimedia.org/wikipedia/commons/thumb/9/9d/Golden_Temple_Amritsar.jpg/640px-Golden_Temple_Amritsar.jpg,1,seed
Apple Park Cupertino,tech_giant,37.335,-122.009,US,uncommon,5.0,2,0,223,genesis,100223,25,170,intel,300000,25,"$5B spaceship. 12,000 employees. Most valuable company ever.",,,1,seed
Baalbek Temples,ancient_ruins,34.006,36.217,LB,uncommon,5.0,2,0,745,genesis,100745,25,45,culture,2250000,25,UNESCO. Largest Roman temple ever. Jupiter temple columns 20m.,Three monolithic blocks in foundation weigh 800 tonnes each,https://upload.wikimedia.org/wikipedia/commons/thumb/5/55/Baalbek_ruins.jpg/640px-Baalbek_ruins.jpg,1,seed
Bagan Archaeological Zone,ancient_ruins,21.173,94.857,MM,uncommon,5.0,2,0,451,genesis,100451,25,45,culture,2250000,25,"2,200 temples. Myanmar's greatest ancient city. Sunrise balloons.",,,1,seed
Bagan Temple City,ancient_ruins,21.173,94.857,MM,uncommon,5.0,2,0,327,genesis,100327,25,45,culture,2250000,25,"2,000+ temples over 104 km². 9th-13th century. Hot air balloon views.","Over 10,000 temples built — most destroyed by other kings",https://upload.wikimedia.org/wikipedia/commons/thumb/4/4b/Bagan_Myanmar.jpg/640px-Bagan_Myanmar.jpg,1,seed
Bali Rice Terraces,agri_megafarm,-8.37,115.12,ID,uncommon,5.0,2,0,824,genesis,100824,25,50,food,300000,25,UNESCO subak irrigation system. 1000 year old cooperative farming.,Priests coordinate planting using water temple ceremonies — works perfectly,https://upload.wikimedia.org/wikipedia/commons/thumb/d/d7/Tegallalang_Rice_Terrace.jpg/640px-Tegallalang_Rice_Terrace.jpg,1,seed
Bangkok Grand Palace,royal_palace,13.75,100.491,TH,uncommon,5.0,2,0,329,genesis,100329,25,70,culture,300000,25,"Emerald Buddha. 218,400 m². 1782. Gilded spires.",,,1,seed
Belize Great Blue Hole,coral_reef,17.315,-87.535,BZ,uncommon,5.0,2,0,911,genesis,100911,25,45,food,300000,25,UNESCO. 300m wide underwater sinkhole. Stalactites 120m down.,Jacques Cousteau called it one of top 5 dive sites in world,https://upload.wikimedia.org/wikipedia/commons/thumb/5/52/Great_Blue_Hole.jpg/640px-Great_Blue_Hole.jpg,1,seed
Blue Mosque Istanbul,religious_site,41.005,28.977,TR,uncommon,5.0,2,0,285,genesis,100285,25,40,culture,4500000,25,"Sultan Ahmed Mosque. 6 minarets. 20,000 Iznik tiles.",,,1,seed
Borobudur Temple,religious_site,-7.608,110.204,ID,uncommon,5.0,2,0,343,genesis,100343,25,40,culture,4500000,25,"World's largest Buddhist monument. 9th century. 2,672 reliefs. UNESCO.",,,1,seed
Cano Cristales Colombia,nature_sanctuary,2.27,-73.78,CO,uncommon,5.0,2,0,669,genesis,100669,25,40,culture,1200000,25,"Liquid Rainbow river. Red, blue, green, yellow algae. Only 3 months/yr.",Called the most beautiful river in the world,https://upload.wikimedia.org/wikipedia/commons/thumb/0/07/Cano_Cristales.jpg/640px-Cano_Cristales.jpg,1,seed
Carnival Rio de Janeiro,sports_arena,-22.912,-43.172,BR,uncommon,5.0,2,0,426,genesis,100426,25,45,culture,300000,25,World's largest carnival. 6-day festival. Sambadrome. 7M people/day.,,,1,seed
Chengdu Panda Base,nature_sanctuary,30.738,104.151,CN,uncommon,5.0,2,0,842,genesis,100842,25,40,culture,1200000,25,China Giant Panda Breeding Base. Only place to see giant pandas.,Giant pandas eat 12-38 kg of bamboo per day — 16 hours,https://upload.wikimedia.org/wikipedia/commons/thumb/0/0f/Giant_Panda_at_Sichuan_Panda_Reserve.jpg/640px-Giant_Panda_at_Sichuan_Panda_Reserve.jpg,1,seed
Delphi Oracle Site,ancient_ruins,38.482,22.501,GR,uncommon,5.0,2,0,879,genesis,100879,25,45,culture,2250000,25,UNESCO. Pythia oracle. Naval of Earth. Treasury of Athens.,Leaders of Mediterranean consulted oracle before major decisions — including wars,https://upload.wikimedia.org/wikipedia/commons/thumb/3/30/Delphi_panoramic_view.jpg/640px-Delphi_panoramic_view.jpg,1,seed
Djemaa el-Fna Marrakech,ancient_ruins,31.626,-7.989,MA,uncommon,5.0,2,0,247,genesis,100247,25,45,culture,2250000,25,"UNESCO Oral Heritage. Snake charmers, storytellers, street food. Alive at night.",Only UNESCO-listed open-air square,,1,seed
Dunhuang Silk Road,ancient_ruins,40.036,94.808,CN,uncommon,5.0,2,0,849,genesis,100849,25,45,culture,2250000,25,UNESCO Mogao Caves. 492 caves. Silk Road art 4th-14th century.,"50,000 ancient manuscripts found walled up in one cave in 1900",https://upload.wikimedia.org/wikipedia/commons/thumb/5/57/Mogao_Caves.jpg/640px-Mogao_Caves.jpg,1,seed
Easter Island,ancient_ruins,-27.113,-109.349,CL,uncommon,5.0,2,0,419,genesis,100419,25,45,culture,2250000,25,"887 moai statues. 5,000km from nearest continent. Civilization collapsed.",,https://upload.wikimedia.org/wikipedia/commons/thumb/3/3e/Easter_Island_Moai.jpg/640px-Easter_Island_Moai.jpg,1,seed
Easter Island Rano Raraku,ancient_ruins,-27.122,-109.291,CL,uncommon,5.0,2,0,921,genesis,100921,25,45,culture,2250000,25,Quarry of 397 moai in hillside. Civilization ended while still carving.,Statues abandoned mid-carve — civilization collapsed suddenly,https://upload.wikimedia.org/wikipedia/commons/thumb/3/3e/Easter_Island_Moai.jpg/640px-Easter_Island_Moai.jpg,1,seed
Ellora Caves,ancient_ruins,20.027,75.179,IN,uncommon,5.0,2,0,785,genesis,100785,25,45,culture,2250000,25,"UNESCO. 34 caves across 3 religions — Hindu, Buddhist, Jain. 600-1000 AD.",Largest rock-cut monastery complex in world,https://upload.wikimedia.org/wikipedia/commons/thumb/5/5a/Ellora_cave.jpg/640px-Ellora_cave.jpg,1,seed
Fiordland New Zealand,nature_sanctuary,-45.414,167.716,NZ,uncommon,5.0,2,0,448,genesis,100448,25,40,culture,1200000,25,UNESCO. Milford Sound. Lord of the Rings filming. 700m rainfall/yr.,,,1,seed
Galapagos Islands,nature_sanctuary,-0.67,-90.55,EC,uncommon,5.0,2,0,415,genesis,100415,25,40,culture,1200000,25,Darwin's lab. 19 islands. Unique species. UNESCO. 97% national park.,,,1,seed
Gobekli Tepe,ancient_ruins,37.223,38.922,TR,uncommon,5.0,2,0,291,genesis,100291,25,45,culture,2250000,25,"World's oldest temple. 11,600 years old. Rewrote human history.","Predates Stonehenge by 7,000 years. Built before agriculture",,1,seed
Googleplex Mountain View,tech_giant,37.422,-122.084,US,uncommon,5.0,2,0,224,genesis,100224,25,170,intel,300000,25,"Google/Alphabet HQ. 140,000 employees globally. Self-driving cars.",,,1,seed
Great Barrier Reef Coral Sea,coral_reef,-18.29,147.7,AU,uncommon,5.0,2,0,651,genesis,100651,25,45,food,300000,25,"2,300km. Largest living organism. UNESCO. 50% bleached by 2024.",,https://upload.wikimedia.org/wikipedia/commons/thumb/5/5b/Great_Barrier_Reef.jpg/640px-Great_Barrier_Reef.jpg,1,seed
Guilin Yangshuo Karst,nature_sanctuary,24.778,110.494,CN,uncommon,5.0,2,0,838,genesis,100838,25,40,culture,1200000,25,Karst mountains reflected in Li River. 20 RMB banknote.,"Locals say ""Guilin scenery is the best under heaven""",https://upload.wikimedia.org/wikipedia/commons/thumb/2/27/Guilin_Riverside.jpg/640px-Guilin_Riverside.jpg,1,seed
Göbekli Tepe Enclosures,ancient_ruins,37.223,38.922,TR,uncommon,5.0,2,0,726,genesis,100726,25,45,culture,2250000,25,"T-shaped pillars. 11,600 BC. Older than all known civilizations.",Rewrote history — complex society before agriculture,,1,seed
Hagia Sophia Istanbul,religious_site,41.008,28.98,TR,uncommon,5.0,2,0,284,genesis,100284,25,40,culture,4500000,25,"1,500 years old. Mosque→Church→Museum→Mosque. Byzantine masterpiece.","Largest cathedral for 1,000 years. Reconverted to mosque in 2020",,1,seed
Hawaii Volcanoes Park,volcano,19.419,-155.287,US,uncommon,5.0,2,0,925,genesis,100925,25,40,energy,450000,25,UNESCO. Kilauea active lava. New land forming. Pele goddess homeland.,Hawaii is growing — lava adds new land every year — youngest US state,https://upload.wikimedia.org/wikipedia/commons/thumb/6/6c/Kilauea_lava.jpg/640px-Kilauea_lava.jpg,1,seed
Jerusalem Temple Mount,religious_site,31.778,35.235,IL,uncommon,5.0,2,0,214,genesis,100214,25,40,culture,4500000,25,Holy to 3 religions. Most contested land on Earth. Al-Aqsa + Western Wall.,,,1,seed
Lake Toba Volcano,volcano,2.6,98.83,ID,uncommon,5.0,2,0,825,genesis,100825,25,40,energy,450000,25,"Supervolcano caldera. World largest. 74,000 years ago eruption nearly ended humanity.","Toba eruption reduced human population to perhaps 10,000 individuals",https://upload.wikimedia.org/wikipedia/commons/thumb/3/3d/Lake_Toba.jpg/640px-Lake_Toba.jpg,1,seed
Lalibela Rock Churches,religious_site,12.032,39.044,ET,uncommon,5.0,2,0,255,genesis,100255,25,40,culture,4500000,25,11 monolithic churches carved from rock in 12th century. Christian pilgrimage.,Legend: angels helped build them overnight,,1,seed
Li River Guilin,nature_sanctuary,25.274,110.29,CN,uncommon,5.0,2,0,361,genesis,100361,25,40,culture,1200000,25,Karst mountains. 20 yuan banknote scene. Most beautiful river in China.,,,1,seed
Lofoten Islands,nature_sanctuary,68.154,13.987,NO,uncommon,5.0,2,0,895,genesis,100895,25,40,culture,1200000,25,Arctic archipelago. Midnight sun. Northern Lights. Iconic red cabins.,Fishing village where million year old mountains meet Arctic sea,https://upload.wikimedia.org/wikipedia/commons/thumb/c/c5/Lofoten_Norway.jpg/640px-Lofoten_Norway.jpg,1,seed
Louvre Museum Paris,museum,48.86,2.337,FR,uncommon,5.0,2,0,221,genesis,100221,25,30,culture,3750000,25,"35,000 objects. 9M visitors/yr. Mona Lisa. Most visited museum.",,,1,seed
Maasai Mara National Reserve,nature_sanctuary,-1.507,35.145,KE,uncommon,5.0,2,0,260,genesis,100260,25,40,culture,1200000,25,Great Migration — 1.5M wildebeest. Big Five. Continuous migration with Serengeti.,,,1,seed
Maluku Raja Ampat,coral_reef,-0.234,130.52,ID,uncommon,5.0,2,0,828,genesis,100828,25,45,food,300000,25,"1,500 fish species. Most biodiverse marine area on Earth.",Isolated geography means species found nowhere else evolved here,https://upload.wikimedia.org/wikipedia/commons/thumb/9/9f/Raja_Ampat.jpg/640px-Raja_Ampat.jpg,1,seed
Mecca Masjid al-Haram,religious_site,21.423,39.826,SA,uncommon,5.0,2,0,213,genesis,100213,25,40,culture,4500000,25,Holiest Islamic site. 2M+ pilgrims/yr. Kaaba.,Non-Muslims banned from entering the city,,1,seed
Mohenjo-daro,ancient_ruins,27.329,68.138,PK,uncommon,5.0,2,0,797,genesis,100797,25,45,culture,2250000,25,UNESCO. 2500 BC. One of first cities. Grid streets. Advanced plumbing.,Had underground drainage in 2500 BC — Europe didn't until 19th century,https://upload.wikimedia.org/wikipedia/commons/thumb/b/b2/Mohenjo-daro.jpg/640px-Mohenjo-daro.jpg,1,seed
Monasteries of Meteora,religious_site,39.72,21.631,GR,uncommon,5.0,2,0,883,genesis,100883,25,40,culture,4500000,25,UNESCO. 6 monasteries on rock pillars. Rope ladders until 1920s.,Monks raised themselves in nets — only other access was rope ladder until 1920s,https://upload.wikimedia.org/wikipedia/commons/thumb/8/8e/Meteora_Greece.jpg/640px-Meteora_Greece.jpg,1,seed
Mont Saint-Michel,religious_site,48.636,-1.511,FR,uncommon,5.0,2,0,682,genesis,100682,25,40,culture,4500000,25,UNESCO. Abbey on tidal island. 3M visitors/yr. High tide cuts it off.,,https://upload.wikimedia.org/wikipedia/commons/thumb/5/5e/Mont_Saint_Michel.jpg/640px-Mont_Saint_Michel.jpg,1,seed
Mount Fuji,volcano,35.362,138.731,JP,uncommon,5.0,2,0,179,genesis,100179,25,40,energy,450000,25,"3,776m. Japan's sacred symbol. Last erupted 1707.",,,1,seed
NYSE New York Stock Exchange,stock_exchange,40.707,-74.011,US,uncommon,5.0,2,0,16,genesis,100016,25,85,credits,300000,70,World's largest. $25T market cap. 11 Wall Street.,Opening bell rung by celebrities & heads of state,,1,seed
Ngorongoro Crater,nature_sanctuary,-3.22,35.5,TZ,uncommon,5.0,2,0,265,genesis,100265,25,40,culture,1200000,25,"World's largest intact volcanic caldera. 30,000 animals in 260km².",Animals can't escape — the crater is their world,https://upload.wikimedia.org/wikipedia/commons/thumb/7/73/Ngorongoro_Crater.jpg/640px-Ngorongoro_Crater.jpg,1,seed
Nyiragongo Volcano,volcano,-1.52,29.25,CD,uncommon,5.0,2,0,705,genesis,100705,25,40,energy,450000,25,Active lava lake. 1977 eruption killed 2000 — 100 mph lava flow.,World fastest moving lava in history,https://upload.wikimedia.org/wikipedia/commons/thumb/5/5e/Nyiragongo.jpg/640px-Nyiragongo.jpg,1,seed
Old City of Jerusalem,religious_site,31.778,35.235,IL,uncommon,5.0,2,0,302,genesis,100302,25,40,culture,4500000,25,"4 quarters: Jewish, Muslim, Christian, Armenian. Western Wall, Al-Aqsa, Church of Holy Sepulchre.",,,1,seed
Pantanal Brazil,nature_sanctuary,-17.0,-57.0,BR,uncommon,5.0,2,0,920,genesis,100920,25,40,culture,1200000,25,"UNESCO. Largest tropical wetland 150,000 km². Jaguars.",Best place to see jaguar in wild — walk up to them in flat terrain,https://upload.wikimedia.org/wikipedia/commons/thumb/6/66/Pantanal_jaguar.jpg/640px-Pantanal_jaguar.jpg,1,seed
Persepolis,ancient_ruins,29.935,52.891,IR,uncommon,5.0,2,0,308,genesis,100308,25,45,culture,2250000,25,Achaemenid Persian capital. Alexander burned it 330 BC. Reliefs of 28 nations.,,,1,seed
Phong Nha Cave,cave_system,17.559,106.283,VN,uncommon,5.0,2,0,818,genesis,100818,25,25,materials,300000,25,"Son Doong — world largest cave. 200m high, 150m wide, 9km explored.","Underground jungle, river, and clouds inside cave",https://upload.wikimedia.org/wikipedia/commons/thumb/7/7c/Son_Doong_cave.jpg/640px-Son_Doong_cave.jpg,1,seed
Pompeii Ruins,ancient_ruins,40.751,14.49,IT,uncommon,5.0,2,0,183,genesis,100183,25,45,culture,2250000,25,Destroyed by Vesuvius 79 AD. City preserved in ash. 3M visitors/yr.,,,1,seed
Port of Shanghai,mega_port,31.24,121.5,CN,uncommon,5.0,2,0,208,genesis,100208,25,60,credits,300000,60,World's busiest port. 47M TEU/yr.,,,1,seed
Port of Singapore,mega_port,1.27,103.83,SG,uncommon,5.0,2,0,209,genesis,100209,25,60,credits,300000,60,37M TEU/yr. World's most efficient. 600+ shipping lines.,,,1,seed
Santorini Caldera,volcano,36.393,25.461,GR,uncommon,5.0,2,0,400,genesis,100400,25,40,energy,450000,25,Volcanic caldera island. White-blue houses. Sunset views. 3M visitors/yr.,,https://upload.wikimedia.org/wikipedia/commons/thumb/d/d1/Santorini_-_Oia.jpg/640px-Santorini_-_Oia.jpg,1,seed
Serengeti National Park,nature_sanctuary,-2.333,34.833,TZ,uncommon,5.0,2,0,264,genesis,100264,25,40,culture,1200000,25,"UNESCO. 1.5M wildebeest migration. 5,000 lions. Endless plains.","Name means ""endless plains"" in Maasai",,1,seed
Sigiriya Lion Rock,ancient_ruins,7.957,80.76,LK,uncommon,5.0,2,0,325,genesis,100325,25,45,culture,2250000,25,5th century royal citadel on rock column. Frescoes 200m up. UNESCO.,400 graffiti messages left by visitors in 7th century,,1,seed
Sigiriya Rock Fortress,ancient_ruins,7.957,80.76,LK,uncommon,5.0,2,0,461,genesis,100461,25,45,culture,2250000,25,"5th century palace atop 200m rock. Frescoes, mirror wall, lion gate.",,,1,seed
Table Mountain Cape Town,mountain_peak,-33.962,18.403,ZA,uncommon,5.0,2,0,272,genesis,100272,25,20,culture,150000,25,"Flat-topped. 1,086m. Cableway. One of New 7 Wonders of Nature.",,,1,seed
Terracotta Army Xi'an,ancient_ruins,34.385,109.273,CN,uncommon,5.0,2,0,366,genesis,100366,25,45,culture,2250000,25,"8,000 life-size soldiers for Qin Shi Huang. Discovered 1974 by farmers.",Each face is unique — modeled on real soldiers,,1,seed
Tiger's Nest Monastery,religious_site,27.491,89.363,BT,uncommon,5.0,2,0,323,genesis,100323,25,40,culture,4500000,25,Paro Taktsang. 900m cliff. Guru Rinpoche meditated here 8th century.,Most visited site in a country that limits tourism,,1,seed
Times Square New York,financial_hub,40.758,-73.986,US,uncommon,5.0,2,0,379,genesis,100379,25,90,credits,7500000,75,50M visitors/yr. Most visited tourist site in world. 47 Broadway theaters.,,,1,seed
Valley of the Kings Luxor,ancient_ruins,25.746,32.601,EG,uncommon,5.0,2,0,242,genesis,100242,25,45,culture,2250000,25,Tombs of 63 pharaohs incl. Tutankhamun. New Kingdom burial site.,KV62 (Tutankhamun) found sealed with treasures in 1922,,1,seed
Varanasi Ghats,religious_site,25.317,83.013,IN,uncommon,5.0,2,0,313,genesis,100313,25,40,culture,4500000,25,Oldest living city. 84 ghats. Cremation on Ganges banks.,,,1,seed
Vatican City,religious_site,41.903,12.454,VA,uncommon,5.0,2,0,212,genesis,100212,25,40,culture,4500000,25,World's smallest country. 800 citizens. $8B+ assets. Sistine Chapel.,,,1,seed
Versailles Palace,royal_palace,48.805,2.12,FR,uncommon,5.0,2,0,218,genesis,100218,25,70,culture,300000,25,Sun King's palace. 700 rooms. Hall of Mirrors. 6M visitors/yr.,,,1,seed
Volcanoes National Park Gorillas,nature_sanctuary,-1.47,29.54,RW,uncommon,5.0,2,0,268,genesis,100268,25,40,culture,1200000,25,Half of world's mountain gorillas. Dian Fossey studied and died here.,"Gorilla trekking permit costs $1,500",,1,seed
Yellowstone Supervolcano,volcano,44.6,-110.5,US,uncommon,5.0,2,0,180,genesis,100180,25,40,energy,450000,25,"Supervolcano. 640,000 yr eruption cycle. Overdue?.",Eruption would cover North America in ash,,1,seed
AT&T Stadium Arlington,sports_arena,32.748,-97.093,US,uncommon,5.0,2,0,78,genesis,100078,25,45,culture,200000,25,"Dallas Cowboys. 100,000+ capacity. Largest domed stadium.",,,0,seed
African Union HQ Addis Ababa,international_org,9.005,38.763,ET,uncommon,5.0,2,0,477,genesis,100477,25,80,intel,200000,25,"55 member states. Africa's UN. Peacekeeping, trade, development.",,https://upload.wikimedia.org/wikipedia/commons/thumb/5/51/African_Union_Commission_building.jpg/640px-African_Union_Commission_building.jpg,0,seed
Agadir Anti-Atlas,mountain_peak,29.4,-8.5,MA,uncommon,5.0,2,0,720,genesis,100720,25,20,culture,100000,25,Ancient trade route. Fortified granaries (agadirs). Silver mines.,Region supplies most of world argan oil,,0,seed
Ait Benhaddou Kasbah,ancient_ruins,31.047,-7.132,MA,uncommon,5.0,2,0,249,genesis,100249,25,45,culture,1500000,25,"Fortified clay city. UNESCO. Gladiator, Lawrence of Arabia filmed here.",,,0,seed
Ajanta Ellora Caves,ancient_ruins,20.552,75.7,IN,uncommon,5.0,2,0,315,genesis,100315,25,45,culture,1500000,25,30 Buddhist rock-cut temples. 2nd century BC. UNESCO. Masterpiece painting.,,,0,seed
Aksum Obelisks,ancient_ruins,14.129,38.723,ET,uncommon,5.0,2,0,256,genesis,100256,25,45,culture,1500000,25,"Ancient kingdom capital. Obelisks 1,700 years old. Ark of the Covenant alleged.","One obelisk was looted by Mussolini, returned in 2008",,0,seed
Al-Ula Valley,ancient_ruins,26.614,37.92,SA,uncommon,5.0,2,0,298,genesis,100298,25,45,culture,1500000,25,"AlUla — canyon, oasis, Nabataean tombs. Saudi Arabia's grand tourism project.",,,0,seed
Alexandria Catacombs,ancient_ruins,31.186,29.898,EG,uncommon,5.0,2,0,245,genesis,100245,25,45,culture,1500000,25,Greco-Roman necropolis. 3 underground levels. Roman-Egyptian hybrid art.,,,0,seed
Alexandria Library Site,ancient_ruins,31.2,29.906,EG,uncommon,5.0,2,0,688,genesis,100688,25,45,culture,1500000,25,"Ancient world center of knowledge. 700,000 scrolls. Burned in antiquity.",Julius Caesar accidentally burned part of it,,0,seed
Alhambra Granada,royal_palace,37.176,-3.588,ES,uncommon,5.0,2,0,396,genesis,100396,25,70,culture,200000,25,UNESCO Moorish palace. 3M visitors/yr. Nasrid dynasty 14th cent.,World record holder for most online museum tickets purchased in one day,,0,seed
Alibaba Hangzhou HQ,tech_giant,30.28,120.05,CN,uncommon,5.0,2,0,228,genesis,100228,25,170,intel,200000,25,"Jack Ma's empire. $400B+ revenue. AliPay, Taobao, Cloud.",,,0,seed
Almaty,financial_hub,43.238,76.945,KZ,uncommon,5.0,2,0,1064,genesis,101064,25,90,credits,5000000,75,Former Soviet capital. Silk Road city. Apple origin — grew wild here.,Wild apples grew in Tian Shan forests here — genetic ancestor of all apples,,0,city_seed
Almaty Medeo Ice Rink,sports_arena,43.151,77.056,KZ,uncommon,5.0,2,0,612,genesis,100612,25,45,culture,200000,25,"Highest ice rink in world. 1,691m. 40+ world records set here.",,https://upload.wikimedia.org/wikipedia/commons/thumb/4/4a/Medeo_ice_rink.jpg/640px-Medeo_ice_rink.jpg,0,seed
Altai Mountains Kazakhstan,mountain_peak,49.8,86.6,KZ,uncommon,5.0,2,0,378,genesis,100378,25,20,culture,100000,25,UNESCO. Altai mountains — cradle of Turkic civilization. Snow leopards.,,,0,seed
Amalfi Coast,nature_sanctuary,40.634,14.603,IT,uncommon,5.0,2,0,392,genesis,100392,25,40,culture,800000,25,UNESCO. Cliffside villages. Limoncello. Positano.,,,0,seed
Amazon Basin Iquitos,ancient_forest,-3.743,-73.251,PE,uncommon,5.0,2,0,417,genesis,100417,25,35,food,200000,25,Largest accessible Amazon city. Only by boat/plane. Pink dolphins.,,,0,seed
Amazon Manaus Opera House,museum,-3.13,-60.023,BR,uncommon,5.0,2,0,663,genesis,100663,25,30,culture,2500000,25,Belle Époque opera house in middle of Amazon. Built with rubber boom money.,Caruso performed here — rubber barons paid gold,https://upload.wikimedia.org/wikipedia/commons/thumb/2/24/Teatro_Amazonas_Manaus.jpg/640px-Teatro_Amazonas_Manaus.jpg,0,seed
Amazon Seattle HQ2,tech_giant,47.615,-122.336,US,uncommon,5.0,2,0,227,genesis,100227,25,170,intel,200000,25,Spheres biome landmark. AWS runs 33% of internet.,,,0,seed
Amboseli National Park,nature_sanctuary,-2.652,37.26,KE,uncommon,5.0,2,0,261,genesis,100261,25,40,culture,800000,25,"Elephant herds with Kilimanjaro backdrop. 1,600 elephants.",,,0,seed
Amphitheatre of El Jem,ancient_ruins,35.296,10.706,TN,uncommon,5.0,2,0,253,genesis,100253,25,45,culture,1500000,25,"Third largest Roman amphitheater. 35,000 capacity. Gladiator Games filmed here.",,,0,seed
Ancient Babylon,ancient_ruins,32.542,44.421,IQ,uncommon,5.0,2,0,305,genesis,100305,25,45,culture,1500000,25,Hanging Gardens site. Nebuchadnezzar's capital. Ishtar Gate. UNESCO.,Saddam Hussein rebuilt Babylon on top of ruins,,0,seed
Angkor Thom Bayon,ancient_ruins,13.441,103.859,KH,uncommon,5.0,2,0,450,genesis,100450,25,45,culture,1500000,25,Jayavarman VII capital. South Gate. 54 towers with smiling faces.,,,0,seed
Ani Ruins,ancient_ruins,40.509,43.572,TR,uncommon,5.0,2,0,732,genesis,100732,25,45,culture,1500000,25,"Medieval Armenian capital. 100,000 population. 40 churches. Abandoned.",Once rival to Constantinople — now empty field on Armenia border,,0,seed
Annapurna Circuit Nepal,mountain_peak,28.5,84.1,NP,uncommon,5.0,2,0,622,genesis,100622,25,20,culture,100000,25,"World's best trekking circuit. 160-230km. Thorong La 5,416m pass.",,https://upload.wikimedia.org/wikipedia/commons/thumb/7/70/Annapurna_Base_Camp.jpg/640px-Annapurna_Base_Camp.jpg,0,seed
Antelope Canyon,cave_system,36.862,-111.375,US,uncommon,5.0,2,0,928,genesis,100928,25,25,materials,200000,25,Slot canyon. Navajo Nation. Light beams. Most photographed canyon.,Floods killed 11 tourists 1997 — flash floods still occur without warning,,0,seed
Antelope Canyon Arizona,cave_system,36.862,-111.375,US,uncommon,5.0,2,0,656,genesis,100656,25,25,materials,200000,25,Slot canyon. Light beams. Navajo Nation. Most photographed in SW.,,https://upload.wikimedia.org/wikipedia/commons/thumb/9/92/Antelope_Canyon_Slot_Canyon.jpg/640px-Antelope_Canyon_Slot_Canyon.jpg,0,seed
Anuradhapura Sacred City,ancient_ruins,8.335,80.402,LK,uncommon,5.0,2,0,804,genesis,100804,25,45,culture,1500000,25,UNESCO. 2300 years old. Sacred Bo Tree cutting from Buddha's tree.,Bo Tree here is oldest documented tree — cutting from tree Buddha sat under,,0,seed
Aphrodisias,ancient_ruins,37.707,28.727,TR,uncommon,5.0,2,0,729,genesis,100729,25,45,culture,1500000,25,"Best preserved Roman city. Stadium for 30,000. Marble everywhere.",Famous for white marble — sent across entire Roman Empire,,0,seed
Apia,capital_city,-13.833,-171.767,WS,uncommon,5.0,2,0,1101,genesis,101101,25,75,credits,10000000,80,Samoa capital. Robert Louis Stevenson died here. Rugby nation.,Robert Louis Stevenson spent last years here — called it his home,,0,city_seed
Aqaba Coral Reef,coral_reef,29.53,35.0,JO,uncommon,5.0,2,0,743,genesis,100743,25,45,food,200000,25,Northernmost coral reef in world. Jordan only sea access.,Only 26km coastline — Jordan can only see Red Sea from one city,,0,seed
Arashiyama Bamboo Grove,ancient_forest,35.017,135.671,JP,uncommon,5.0,2,0,633,genesis,100633,25,35,food,200000,25,Towering bamboo forest. Tenryu-ji garden. Walking paths.,,https://upload.wikimedia.org/wikipedia/commons/thumb/1/1e/Arashiyama_bamboo.jpg/640px-Arashiyama_bamboo.jpg,0,seed
Arenal Volcano Costa Rica,volcano,10.462,-84.703,CR,uncommon,5.0,2,0,913,genesis,100913,25,40,energy,300000,25,Active stratovolcano. Thermal springs. Jungle zip lines.,Was dormant 400 years — exploded 1968 destroying 3 villages killing 87,,0,seed
Atacama Atacameño Culture,ancient_ruins,-22.9,-68.2,CL,uncommon,5.0,2,0,922,genesis,100922,25,45,culture,1500000,25,"San Pedro de Atacama. 12,000 years. Tiwanaku influence.",Driest desert — mummies preserved 9000 years without any treatment,,0,seed
Atlas Mountains Morocco,mountain_peak,31.1,-7.9,MA,uncommon,5.0,2,0,717,genesis,100717,25,20,culture,100000,25,"Highest 4,167m Toubkal. Berbere culture. Skiing possible.",Berber villages unchanged for centuries in High Atlas,,0,seed
Auckland,financial_hub,-36.848,174.763,NZ,uncommon,5.0,2,0,1068,genesis,101068,25,90,credits,5000000,75,City of Sails. Volcanic field. Maori culture. Rugby.,"Built on 53 dormant volcanoes — any could erupt in the next 10,000 years",,0,city_seed
Australian Securities Exchange,stock_exchange,-33.864,151.209,AU,uncommon,5.0,2,0,31,genesis,100031,25,85,credits,200000,70,"$1.7T market cap. BHP, Commonwealth Bank, CSL.",,,0,seed
Avenue of the Baobabs,ancient_forest,-20.253,44.419,MG,uncommon,5.0,2,0,282,genesis,100282,25,35,food,200000,25,Giants up to 800 years old. Iconic Madagascar image. Sacred to locals.,These are technically upside-down trees (roots up),,0,seed
Awash National Park,nature_sanctuary,8.8,40.02,ET,uncommon,5.0,2,0,696,genesis,100696,25,40,culture,800000,25,"Awash Valley fossils. Oryx, Somali wild ass, crocodiles.",Lucy (Australopithecus) found 60km away,,0,seed
Ayaz Kala Fortress,ancient_ruins,41.9,61.0,UZ,uncommon,5.0,2,0,761,genesis,100761,25,45,culture,1500000,25,Chorasmian desert fortress. 2000 years old. Stunning remote location.,Builders carved into desert — no water within 100km,,0,seed
Ayers Rock Uluru Sacred Site,ancient_ruins,-25.344,131.036,AU,uncommon,5.0,2,0,537,genesis,100537,25,45,culture,1500000,25,"Aboriginal Anangu sacred site 60,000+ years. Rock art. Tjukurpa creation law.",,https://upload.wikimedia.org/wikipedia/commons/thumb/3/3e/Uluru_Australia.jpg/640px-Uluru_Australia.jpg,0,seed
Ayutthaya Ruins,ancient_ruins,14.36,100.57,TH,uncommon,5.0,2,0,331,genesis,100331,25,45,culture,1500000,25,Former Thai capital. Burmese sacked 1767. UNESCO. Headless Buddhas.,,,0,seed
BIS Basel,financial_hub,47.56,7.588,CH,uncommon,5.0,2,0,117,genesis,100117,25,90,credits,5000000,75,Bank for International Settlements. Central bank of central banks.,The most powerful bank nobody talks about,,0,seed
Bagan Temples Myanmar,ancient_ruins,21.173,94.857,MM,uncommon,5.0,2,0,582,genesis,100582,25,45,culture,1500000,25,"2,000+ temples. 9th-13th century. Balloon views.",,https://upload.wikimedia.org/wikipedia/commons/thumb/4/4b/Bagan_Myanmar.jpg/640px-Bagan_Myanmar.jpg,0,seed
Bahrain Financial Harbour,financial_hub,26.219,50.582,BH,uncommon,5.0,2,0,529,genesis,100529,25,90,credits,5000000,75,Middle East financial center. $250B+ in assets. Islamic banking hub.,,,0,seed
Baja California Gray Whale,nature_sanctuary,26.84,-113.67,MX,uncommon,5.0,2,0,930,genesis,100930,25,40,culture,800000,25,Gray whale breeding lagoons. UNESCO. Friendly whales approach boats.,Whales approach boats for petting — only place wild animals seek human contact,,0,seed
Bale Mountains Ethiopia,nature_sanctuary,6.85,39.9,ET,uncommon,5.0,2,0,585,genesis,100585,25,40,culture,800000,25,Ethiopian wolves — world's rarest canid. 500 only. Afro-alpine plateau.,Ethiopian wolf eats only giant mole rats,,0,seed
Bali Tanah Lot Temple,religious_site,-8.621,115.086,ID,uncommon,5.0,2,0,344,genesis,100344,25,40,culture,3000000,25,Sea temple on rock. Sunset backdrop. Bali's most photographed site.,,,0,seed
Baltit Fort,royal_palace,36.316,74.643,PK,uncommon,5.0,2,0,802,genesis,100802,25,70,culture,200000,25,700 year old Hunza Kingdom fort. Karakorum backdrop.,Mir (ruler) of Hunza family still lives here privately,,0,seed
Banaue Rice Terraces,agri_megafarm,16.918,121.059,PH,uncommon,5.0,2,0,454,genesis,100454,25,50,food,200000,25,"2,000 year old hand-carved Ifugao rice terraces. 8th Wonder of World.",,,0,seed
Bangalore Silicon Valley,tech_giant,12.971,77.594,IN,uncommon,5.0,2,0,950,genesis,100950,25,170,intel,200000,25,"India tech capital. Infosys, Wipro, Amazon India. 1M+ tech workers.",Time zone advantage — Indian engineers fix code while US sleeps,,0,seed
Bangui,capital_city,4.361,18.556,CF,uncommon,5.0,2,0,1076,genesis,101076,25,75,credits,10000000,80,CAR capital. Ubangi River. Unstable — multiple coups.,CAR has 80% of diamond reserves but is among world poorest countries,,0,city_seed
Banjul,capital_city,13.454,-16.577,GM,uncommon,5.0,2,0,1078,genesis,101078,25,75,credits,10000000,80,Gambia capital. Smallest African mainland country.,Gambia is a river — country is just land on both sides of one river,,0,city_seed
Basra Old Souk,financial_hub,30.512,47.783,IQ,uncommon,5.0,2,0,741,genesis,100741,25,90,credits,5000000,75,Ancient trading city. Sinbad sailor mythological origin. Dates.,Legend says Sinbad sailed from here on his seven voyages,,0,seed
Batad Rice Terraces,agri_megafarm,16.927,121.059,PH,uncommon,5.0,2,0,834,genesis,100834,25,50,food,200000,25,UNESCO. 2000 year old amphitheatre rice terraces. Ifugao people.,Carved by hand with no machinery — took 2000 years,,0,seed
Batu Caves Kuala Lumpur,religious_site,3.237,101.684,MY,uncommon,5.0,2,0,646,genesis,100646,25,40,culture,3000000,25,Hindu shrine in 400M year old cave. Golden statue 42m. 272 steps.,,https://upload.wikimedia.org/wikipedia/commons/thumb/d/d9/Batu_Caves.jpg/640px-Batu_Caves.jpg,0,seed
Bay of Islands New Zealand,nature_sanctuary,-35.249,174.069,NZ,uncommon,5.0,2,0,543,genesis,100543,25,40,culture,800000,25,144 islands. Birthplace of New Zealand. Treaty of Waitangi 1840.,,,0,seed
Bayan-Olgii Eagle Festival,ancient_ruins,48.0,89.0,MN,uncommon,5.0,2,0,772,genesis,100772,25,45,culture,1500000,25,Mongolian Kazakh eagle hunters. 2000 year old tradition. October.,Only place on Earth where people still hunt with golden eagles on horseback,,0,seed
Bayon Temple Faces,ancient_ruins,13.442,103.859,KH,uncommon,5.0,2,0,336,genesis,100336,25,45,culture,1500000,25,216 massive stone faces. Khmer King Jayavarman VII.,,,0,seed
Beirut Downtown,financial_hub,33.895,35.503,LB,uncommon,5.0,2,0,604,genesis,100604,25,90,credits,5000000,75,Paris of the Middle East (ruins). Roman columns next to skyscrapers.,Has been destroyed and rebuilt 7 times in history,,0,seed
Benin Bronze Kingdom,ancient_ruins,6.335,5.627,NG,uncommon,5.0,2,0,281,genesis,100281,25,45,culture,1500000,25,Bronze sculptures looted by British 1897. Still debated return. UNESCO.,,,0,seed
Białowieża Forest,ancient_forest,52.703,23.875,PL,uncommon,5.0,2,0,91,genesis,100091,25,35,food,200000,25,Last primeval lowland forest in Europe. European bison sanctuary.,,,0,seed
Bissau,capital_city,11.863,-15.597,GW,uncommon,5.0,2,0,1079,genesis,101079,25,75,credits,10000000,80,Guinea-Bissau capital. Drug trafficking hub for cocaine to Europe.,Country controlled by drug lords — cocaine transshipment center,,0,city_seed
Black Forest Germany,ancient_forest,47.9,8.2,DE,uncommon,5.0,2,0,518,genesis,100518,25,35,food,200000,25,"Schwarzwald. 6,000 km². Cuckoo clocks. Brothers Grimm fairy tales.",,,0,seed
Bled Lake Slovenia,nature_sanctuary,46.368,14.094,SI,uncommon,5.0,2,0,894,genesis,100894,25,40,culture,800000,25,Alpine lake. Island church. Medieval castle cliff. Most photographed.,"Wishing bell — ring three times, make a wish — legend works",,0,seed
Bombay Stock Exchange,stock_exchange,18.928,72.833,IN,uncommon,5.0,2,0,25,genesis,100025,25,85,credits,200000,70,"Asia's oldest exchange (1875). 5,000+ listed companies.",World's largest by number of listed companies,,0,seed
Boreal Forest Siberia,ancient_forest,60.0,100.0,RU,uncommon,5.0,2,0,89,genesis,100089,25,35,food,200000,25,World's largest forest. Stores 1/3 of terrestrial carbon.,,,0,seed
Borneo Heart of Borneo,ancient_forest,1.5,115.0,MY,uncommon,5.0,2,0,440,genesis,100440,25,35,food,200000,25,"Third largest tropical island. Orangutans, pygmy elephants, clouded leopards.",,,0,seed
Borobudur Java,religious_site,-7.608,110.204,ID,uncommon,5.0,2,0,576,genesis,100576,25,40,culture,3000000,25,World's largest Buddhist monument. 9th century.,,https://upload.wikimedia.org/wikipedia/commons/thumb/8/8c/Borobudur_Temple_Compounds.jpg/640px-Borobudur_Temple_Compounds.jpg,0,seed
Borobudur Temple Complex,religious_site,-7.608,110.204,ID,uncommon,5.0,2,0,539,genesis,100539,25,40,culture,3000000,25,"504 Buddha statues. 2,672 relief panels. Largest Buddhist monument.",,https://upload.wikimedia.org/wikipedia/commons/thumb/8/8c/Borobudur_Temple_Compounds.jpg/640px-Borobudur_Temple_Compounds.jpg,0,seed
Boudhanath Stupa,religious_site,27.722,85.362,NP,uncommon,5.0,2,0,795,genesis,100795,25,40,culture,3000000,25,UNESCO. Largest stupa in Nepal. Tibetan Buddhism center.,Eyes painted on stupa represent all-seeing Buddha,https://upload.wikimedia.org/wikipedia/commons/thumb/e/e3/Boudhanath.jpg/640px-Boudhanath.jpg,0,seed
Buckingham Palace,royal_palace,51.501,-0.142,GB,uncommon,5.0,2,0,217,genesis,100217,25,70,culture,200000,25,British Royal residence. 775 rooms. £2B estimated value.,,,0,seed
Bujumbura,capital_city,-3.383,29.362,BI,uncommon,5.0,2,0,1075,genesis,101075,25,75,credits,10000000,80,Burundi capital. Lake Tanganyika shore. 2nd deepest lake.,Lake Tanganyika beside it is world 2nd deepest — holds 17% freshwater,,0,city_seed
Bukhara Ark Citadel,royal_palace,39.776,64.415,UZ,uncommon,5.0,2,0,762,genesis,100762,25,70,culture,200000,25,2000 year old citadel. Last Emir fled before Red Army 1920.,Emir executed foreigners by throwing them into Bug Pit with insects,,0,seed
Bwindi Impenetrable Forest,ancient_forest,-1.05,29.7,UG,uncommon,5.0,2,0,269,genesis,100269,25,35,food,200000,25,UNESCO. 400+ mountain gorillas. 120 mammals. Most biodiverse in Africa.,,,0,seed
ByteDance Beijing HQ,tech_giant,39.984,116.432,CN,uncommon,5.0,2,0,230,genesis,100230,25,170,intel,200000,25,TikTok parent. Most downloaded app ever. $300B valuation.,,,0,seed
Caesarea Maritima,ancient_ruins,32.5,34.89,IL,uncommon,5.0,2,0,304,genesis,100304,25,45,culture,1500000,25,"Herod's Roman port city. Aqueduct, amphitheater, crusader walls all intact.",,,0,seed
Cahokia Mounds Illinois,ancient_ruins,38.655,-90.062,US,uncommon,5.0,2,0,547,genesis,100547,25,45,culture,1500000,25,Largest pre-Columbian city in US. Mississippian culture 900 AD. UNESCO.,Monk's Mound larger at base than Great Pyramid of Giza,,0,seed
Camargue Wetlands France,nature_sanctuary,43.5,4.5,FR,uncommon,5.0,2,0,520,genesis,100520,25,40,culture,800000,25,"Wild horses, flamingos, black bulls. UNESCO Biosphere. Rhône delta.",,,0,seed
Cameron Highlands Tea,agri_megafarm,4.471,101.375,MY,uncommon,5.0,2,0,647,genesis,100647,25,50,food,200000,25,British colonial hill station. Tea plantations. Strawberry farms. Cool climate.,,,0,seed
Cameroon Highlands Bafut,ancient_ruins,6.1,10.07,CM,uncommon,5.0,2,0,716,genesis,100716,25,45,culture,1500000,25,Bafut Palace. UNESCO candidate. Traditional Tikar Kingdom.,Chief has hundreds of wives by royal custom,,0,seed
Camp Nou Barcelona,sports_arena,41.381,2.123,ES,uncommon,5.0,2,0,76,genesis,100076,25,45,culture,200000,25,"Largest stadium in Europe. 99,354 seats. FC Barcelona.",,,0,seed
Cango Caves,cave_system,-33.375,22.224,ZA,uncommon,5.0,2,0,710,genesis,100710,25,25,materials,200000,25,Oudshoorn. Largest show caves in Africa. 20M year old formations.,Accessible but claustrophobic cave passage called Devil Chimney,,0,seed
Cardamom Mountains,ancient_forest,11.5,103.5,KH,uncommon,5.0,2,0,822,genesis,100822,25,35,food,200000,25,"Largest intact rainforest in SE Asia mainland. Sun bears, elephants.",Khmer Rouge hid here for decades after regime fell,,0,seed
Carlsbad Caverns,cave_system,32.148,-104.556,US,uncommon,5.0,2,0,102,genesis,100102,25,25,materials,200000,25,"100+ caves. 400,000 bats. World's largest known cave chamber.",,,0,seed
Carthage Ruins,ancient_ruins,36.853,10.323,TN,uncommon,5.0,2,0,252,genesis,100252,25,45,culture,1500000,25,Ancient Phoenician city. Rome vs Carthage. Hannibal's birthplace.,Romans salted the earth after destroying it,,0,seed
Casablanca Port Morocco,mega_port,33.602,-7.623,MA,uncommon,5.0,2,0,481,genesis,100481,25,60,credits,200000,60,Africa's second busiest. Gateway for Maghreb trade.,,https://upload.wikimedia.org/wikipedia/commons/thumb/1/1c/Port_of_Casablanca.jpg/640px-Port_of_Casablanca.jpg,0,seed
Cedars of God Forest,ancient_forest,34.247,36.054,LB,uncommon,5.0,2,0,747,genesis,100747,25,35,food,200000,25,UNESCO. Last ancient cedar forest. Trees mentioned in Epic of Gilgamesh.,Mentioned in Bible 70+ times. Solomon built Temple from these trees,,0,seed
Central Park New York,nature_sanctuary,40.785,-73.968,US,uncommon,5.0,2,0,380,genesis,100380,25,40,culture,800000,25,843 acres. 42M visitors/yr. World's most visited urban park.,,,0,seed
Chaco Canyon National Park,ancient_ruins,36.062,-107.956,US,uncommon,5.0,2,0,549,genesis,100549,25,45,culture,1500000,25,UNESCO. Ancient Pueblo metropolis. Solar+lunar astronomical alignment.,,,0,seed
Chaco Culture Canyon,ancient_ruins,36.062,-107.956,US,uncommon,5.0,2,0,924,genesis,100924,25,45,culture,1500000,25,UNESCO. Ancestral Puebloan metropolis. Solar+lunar alignment.,Buildings aligned to lunar standstill cycle — takes 18.6 years to observe,,0,seed
Chan Chan Adobe City,ancient_ruins,-8.102,-79.075,PE,uncommon,5.0,2,0,554,genesis,100554,25,45,culture,1500000,25,UNESCO. World's largest adobe city. Chimu capital 850-1470 AD.,,,0,seed
Changi Airport Singapore,mega_port,1.359,103.989,SG,uncommon,5.0,2,0,466,genesis,100466,25,60,credits,200000,60,World's best airport 8× consecutive. Jewel rainforest waterfall inside.,,,0,seed
Chapada Diamantina Brazil,nature_sanctuary,-13.22,-41.46,BR,uncommon,5.0,2,0,918,genesis,100918,25,40,culture,800000,25,Tabletop mountains. Waterfalls. Caves. Blue caves luminescent.,Mosquito Falls has underwater chamber that glows blue — no artificial light,,0,seed
Chefchaouen Blue City,ancient_ruins,35.169,-5.269,MA,uncommon,5.0,2,0,250,genesis,100250,25,45,culture,1500000,25,Entire city painted blue. Atlas Mountains backdrop.,Blue paint was introduced by Jewish refugees in 1930s,,0,seed
Chiang Rai White Temple,religious_site,19.824,99.763,TH,uncommon,5.0,2,0,812,genesis,100812,25,40,culture,3000000,25,Contemporary Buddhist temple. All white. Artist Chalermchai Kositpipat.,Still being built by one artist since 1997 — donation funded,,0,seed
Chittorgarh Fort,ancient_ruins,24.889,74.642,IN,uncommon,5.0,2,0,788,genesis,100788,25,45,culture,1500000,25,Largest fort in India. Three mass self-immolations of women when defeated.,Jauhar — mass suicide to avoid capture — done three times here,,0,seed
Chitwan Elephant Grass,nature_sanctuary,27.5,84.5,NP,uncommon,5.0,2,0,796,genesis,100796,25,40,culture,800000,25,UNESCO. One-horned rhinos. Tigers. Last sal forests. Elephant rides ended.,Wildlife so dense you can walk into elephant or rhino any time,,0,seed
Chitwan National Park,nature_sanctuary,27.574,84.512,NP,uncommon,5.0,2,0,623,genesis,100623,25,40,culture,800000,25,UNESCO. One-horned rhinos. Bengal tigers. Gharial crocodiles.,,,0,seed
Chobe National Park,nature_sanctuary,-18.018,24.44,BW,uncommon,5.0,2,0,595,genesis,100595,25,40,culture,800000,25,"Highest elephant concentration on Earth. 120,000 elephants. Chobe River.",,,0,seed
Choqa Zanbil Ziggurat,ancient_ruins,32.004,48.521,IR,uncommon,5.0,2,0,736,genesis,100736,25,45,culture,1500000,25,UNESCO. Best preserved ziggurat outside Iraq. 1250 BC. Elamite.,5 levels. Each floor dedicated to different deity,,0,seed
Colombo,financial_hub,6.927,79.861,LK,uncommon,5.0,2,0,1059,genesis,101059,25,90,credits,5000000,75,Sri Lanka financial hub. Port City reclamation project. Cinnamon Garden.,Was original source of cinnamon — controlled global spice trade for centuries,,0,city_seed
Congo River Basin,ancient_forest,-0.5,24.0,CD,uncommon,5.0,2,0,88,genesis,100088,25,35,food,200000,25,Second largest tropical forest. Critical carbon sink. Gorilla habitat.,,,0,seed
Conkouati Reserve,nature_sanctuary,-3.84,11.3,CG,uncommon,5.0,2,0,725,genesis,100725,25,40,culture,800000,25,Gorilla sanctuary. Last sea turtles. Humpback whales offshore.,Orphan gorillas rehabilitated and released here,,0,seed
Copan Maya Honduras,ancient_ruins,14.843,-89.141,HN,uncommon,5.0,2,0,909,genesis,100909,25,45,culture,1500000,25,"UNESCO. Maya hieroglyphic stairway. 2,000+ carved glyphs.",Stairway tells entire history of dynasty — longest pre-Columbian text,,0,seed
Cordoba Great Mosque,religious_site,37.879,-4.778,ES,uncommon,5.0,2,0,875,genesis,100875,25,40,culture,3000000,25,UNESCO. 780 red-white arches. Cathedral built inside it.,Cathedral hammered into center of mosque — UNESCO calls it architectural vandalism,,0,seed
Cotopaxi Ecuador,volcano,-0.684,-78.436,EC,uncommon,5.0,2,0,432,genesis,100432,25,40,energy,300000,25,"One of world's highest active volcanos. 5,897m. Perfect cone.",,,0,seed
Ctesiphon Arch,ancient_ruins,33.094,44.581,IQ,uncommon,5.0,2,0,739,genesis,100739,25,45,culture,1500000,25,Taq Kasra. Largest single-span brick arch in world. Sassanid capital.,Arch spans 25m with no supports — defies physics understanding,,0,seed
Daintree Rainforest,ancient_forest,-16.17,145.423,AU,uncommon,5.0,2,0,90,genesis,100090,25,35,food,200000,25,135 million year old rainforest. World's oldest tropical forest.,,,0,seed
Dakar Port Senegal,mega_port,14.677,-17.426,SN,uncommon,5.0,2,0,482,genesis,100482,25,60,credits,200000,60,West Africa hub. Deepwater port. Natural harbour.,,,0,seed
Dambulla Cave Temple,religious_site,7.858,80.649,LK,uncommon,5.0,2,0,803,genesis,100803,25,40,culture,3000000,25,UNESCO. 2100 years of worship. 153 Buddha statues in caves.,King hid in cave during invasion — created temple in gratitude,https://upload.wikimedia.org/wikipedia/commons/thumb/1/19/Dambulla_cave_temples.jpg/640px-Dambulla_cave_temples.jpg,0,seed
Danum Valley Borneo,ancient_forest,4.99,117.79,MY,uncommon,5.0,2,0,829,genesis,100829,25,35,food,200000,25,"Primary dipterocarp rainforest. Orangutans, pygmy elephants, clouded leopard.",Orangutans share 96.9% DNA with us — watching them is watching cousins,,0,seed
Dar es Salaam,financial_hub,-6.799,39.208,TZ,uncommon,5.0,2,1,1017,genesis,101017,25,90,credits,5000000,75,Tanzania commercial capital. Swahili coast hub. Zanzibar ferry.,Named Haven of Peace in Arabic — though no longer capital,,0,city_seed
Delphi Oracle Greece,ancient_ruins,38.482,22.501,GR,uncommon,5.0,2,0,683,genesis,100683,25,45,culture,1500000,25,UNESCO. Pythia oracle. Navel of the Earth. Treasury of Athens.,,https://upload.wikimedia.org/wikipedia/commons/thumb/3/37/Temple_of_Apollo_Delphi.jpg/640px-Temple_of_Apollo_Delphi.jpg,0,seed
Dili,capital_city,-8.56,125.579,TL,uncommon,5.0,2,0,1097,genesis,101097,25,75,credits,10000000,80,East Timor capital. Newest nation 2002. Indonesian occupation history.,Youngest country to join UN — independence 2002 after 24 year occupation,,0,city_seed
Dinder National Park,nature_sanctuary,11.8,35.5,SD,uncommon,5.0,2,0,692,genesis,100692,25,40,culture,800000,25,"Sudan wildlife reserve. Lions, leopards, elephants, giraffes.",One of Africa largest and least visited parks,,0,seed
Diriyah Ancient Capital,ancient_ruins,24.734,46.574,SA,uncommon,5.0,2,0,296,genesis,100296,25,45,culture,1500000,25,UNESCO. Birthplace of Saudi state. Mud-brick UNESCO site in Riyadh suburb.,,,0,seed
Disneyland California,sports_arena,33.812,-117.919,US,uncommon,5.0,2,0,383,genesis,100383,25,45,culture,200000,25,First Disney park 1955. 18M visitors/yr. Walt's dream.,Has its own postal code and fire department,,0,seed
Djenné Mosque Mali,religious_site,13.905,-4.555,ML,uncommon,5.0,2,0,593,genesis,100593,25,40,culture,3000000,25,UNESCO. World's largest mud-brick building. Annual re-plastering festival.,,https://upload.wikimedia.org/wikipedia/commons/thumb/6/67/Djenne_great_mud_mosque.jpg/640px-Djenne_great_mud_mosque.jpg,0,seed
Djibouti Doraleh Container Port,mega_port,11.591,43.145,DJ,uncommon,5.0,2,0,480,genesis,100480,25,60,credits,200000,60,Horn of Africa hub. Chinese-built. Ethiopia's main port access.,China has military base next to US base here,,0,seed
Dogon Country Mali,ancient_ruins,14.3,-3.2,ML,uncommon,5.0,2,0,590,genesis,100590,25,45,culture,1500000,25,Cliff dwellings. Astronomy knowledge predating telescopes. Sirius B.,Knew Sirius had a companion star 700 years before Europeans discovered it,,0,seed
Doi Inthanon Peak,mountain_peak,18.589,98.487,TH,uncommon,5.0,2,0,334,genesis,100334,25,20,culture,100000,25,"Highest in Thailand. 2,565m. Wat Phrathat summit pagoda.",,,0,seed
Dolomites Tre Cime,mountain_peak,46.62,12.3,IT,uncommon,5.0,2,0,872,genesis,100872,25,20,culture,100000,25,UNESCO. Three 3000m rock pinnacles. Best alpine scenery.,Three Peaks — face three different compass directions exactly,https://upload.wikimedia.org/wikipedia/commons/thumb/9/99/Drei_Zinnen.jpg/640px-Drei_Zinnen.jpg,0,seed
Dolomites UNESCO Alps,mountain_peak,46.409,11.861,IT,uncommon,5.0,2,0,512,genesis,100512,25,20,culture,100000,25,UNESCO. Pale pink mountain group. Tre Cime di Lavaredo.,,https://upload.wikimedia.org/wikipedia/commons/thumb/e/e7/Tre_Cime_di_Lavaredo.jpg/640px-Tre_Cime_di_Lavaredo.jpg,0,seed
Door to Hell Turkmenistan,volcano,40.252,58.44,TM,uncommon,5.0,2,0,100,genesis,100100,25,40,energy,300000,25,Gas crater burning since 1971. Set on fire by Soviet geologists.,Never intentionally lit — it was an accident,,0,seed
Draa Valley,nature_sanctuary,30.4,-6.0,MA,uncommon,5.0,2,0,718,genesis,100718,25,40,culture,800000,25,Longest river in Morocco. 200km palm grove. Kasbah route.,Supplied gold and slaves across Sahara for millennia,,0,seed
Drakensberg Mountains,mountain_peak,-29.6,29.4,ZA,uncommon,5.0,2,0,711,genesis,100711,25,20,culture,100000,25,"3,482m Thabana Ntlenyana. UNESCO. 800 San rock art sites.","""Barrier of spears"" — Zulu name. Dragons mountains — Afrikaans",,0,seed
Dubai Creek Historic District,ancient_ruins,25.262,55.303,AE,uncommon,5.0,2,0,299,genesis,100299,25,45,culture,1500000,25,Al Fahidi Fort 1787. Dhow wharfage. Traditional wind towers.,,,0,seed
Dubai Gold Souk,financial_hub,25.286,55.298,AE,uncommon,5.0,2,0,523,genesis,100523,25,90,credits,5000000,75,10 tonnes of gold on display. 380 retailers. Biggest gold market.,,https://upload.wikimedia.org/wikipedia/commons/thumb/a/a2/Dubai_Gold_Souk.jpg/640px-Dubai_Gold_Souk.jpg,0,seed
Dunhuang Mogao Caves,ancient_ruins,40.036,94.808,CN,uncommon,5.0,2,0,629,genesis,100629,25,45,culture,1500000,25,"UNESCO. 492 caves. 45,000 Buddhist murals. Silk Road art 4th-14th century.",,https://upload.wikimedia.org/wikipedia/commons/thumb/3/37/Mogao_Caves_entrance.jpg/640px-Mogao_Caves_entrance.jpg,0,seed
Durban Port South Africa,mega_port,-29.869,31.026,ZA,uncommon,5.0,2,0,475,genesis,100475,25,60,credits,200000,60,Africa's busiest container port. 10th largest in world.,,https://upload.wikimedia.org/wikipedia/commons/thumb/9/9d/Durban_harbour.jpg/640px-Durban_harbour.jpg,0,seed
Dzongs of Bhutan,royal_palace,27.592,89.868,BT,uncommon,5.0,2,0,619,genesis,100619,25,70,culture,200000,25,Fortress-monasteries. Gross National Happiness country. 72% forest.,,,0,seed
ECOWAS HQ Abuja,international_org,9.057,7.499,NG,uncommon,5.0,2,0,484,genesis,100484,25,80,intel,200000,25,15-country West Africa bloc. $700B combined GDP.,,,0,seed
Eden Gardens Kolkata,sports_arena,22.565,88.344,IN,uncommon,5.0,2,0,82,genesis,100082,25,45,culture,200000,25,"68,000 cricket seats. India's most famous ground.",,,0,seed
Edinburgh Castle,royal_palace,55.948,-3.2,GB,uncommon,5.0,2,0,409,genesis,100409,25,70,culture,200000,25,2M visitors/yr. Volcanic rock. Crown Jewels. National War Memorial.,,,0,seed
Elephant Trunk Hill Guilin,nature_sanctuary,25.279,110.29,CN,uncommon,5.0,2,0,632,genesis,100632,25,40,culture,800000,25,Guilin's symbol. Karst hill shaped like drinking elephant. Lijiang River.,,https://upload.wikimedia.org/wikipedia/commons/thumb/2/2f/Guilin_Elephant_Hill.jpg/640px-Guilin_Elephant_Hill.jpg,0,seed
Emei Shan Mountain,religious_site,29.593,103.347,CN,uncommon,5.0,2,0,843,genesis,100843,25,40,culture,3000000,25,"UNESCO. 3,099m. 30+ temples on mountain. Golden summit.",Monkeys steal from tourists — considered holy animals,,0,seed
Ephesus Library Turkey,ancient_ruins,37.94,27.342,TR,uncommon,5.0,2,0,684,genesis,100684,25,45,culture,1500000,25,Library of Celsus. 2nd largest in Roman world. 3M visitors/yr.,,https://upload.wikimedia.org/wikipedia/commons/thumb/2/26/Library_of_Celsus.jpg/640px-Library_of_Celsus.jpg,0,seed
Ephesus Ruins,ancient_ruins,37.94,27.342,TR,uncommon,5.0,2,0,289,genesis,100289,25,45,culture,1500000,25,One of best-preserved Roman cities. Library of Celsus. Temple of Artemis site.,,,0,seed
Epidaurus Theater,ancient_ruins,37.599,23.072,GR,uncommon,5.0,2,0,881,genesis,100881,25,45,culture,1500000,25,"UNESCO. Perfect acoustics. 14,000 seat theater 4th century BC.",Pin drop audible from back row — acoustics not fully scientifically explained,,0,seed
Erta Ale Volcano,volcano,13.6,40.67,ET,uncommon,5.0,2,0,694,genesis,100694,25,40,energy,300000,25,Permanent lava lake since 1906. Most active in Africa.,Afar triangle — Earth pulling apart here. New ocean forming,,0,seed
Euphrates Valley Syria,ancient_ruins,35.5,38.3,SY,uncommon,5.0,2,0,605,genesis,100605,25,45,culture,1500000,25,Cradle of civilization. First writing invented in Sumer. Tell Halaf.,,,0,seed
Euronext Amsterdam,stock_exchange,52.374,4.901,NL,uncommon,5.0,2,0,22,genesis,100022,25,85,credits,200000,70,World's oldest exchange (1602). $7T+ multi-country.,Founded by Dutch East India Company,,0,seed
Everglades National Park,nature_sanctuary,25.387,-80.59,US,uncommon,5.0,2,0,661,genesis,100661,25,40,culture,800000,25,"UNESCO. Largest subtropical wilderness. Alligators, manatees, panthers.",,,0,seed
Everglades Sawgrass,nature_sanctuary,25.387,-80.59,US,uncommon,5.0,2,0,929,genesis,100929,25,40,culture,800000,25,UNESCO. Largest subtropical wilderness. 1.5M alligators.,River of grass flows slowly south — wide shallow sheet impossible to see from ground,,0,seed
Fann Mountains,mountain_peak,39.0,68.4,TJ,uncommon,5.0,2,0,768,genesis,100768,25,20,culture,100000,25,Seven Lakes — staircase of turquoise glacial lakes.,Water changes color with depth — rainbow effect,,0,seed
Fiordland Doubtful Sound,nature_sanctuary,-45.33,166.92,NZ,uncommon,5.0,2,0,653,genesis,100653,25,40,culture,800000,25,3x larger than Milford. Rarely visited. Sound of silence. Dolphins.,,,0,seed
Frankfurt Stock Exchange,stock_exchange,50.113,8.682,DE,uncommon,5.0,2,0,26,genesis,100026,25,85,credits,200000,70,"DAX 40. Deutsche Bank, SAP, Volkswagen. Origins 1585.",,,0,seed
French Guiana Space Rainforest,ancient_forest,4.0,-53.0,GF,uncommon,5.0,2,0,507,genesis,100507,25,35,food,200000,25,97% tropical forest. Ariane rocket launchpad in jungle.,,,0,seed
Fushimi Inari Shrine Kyoto,religious_site,34.967,135.773,JP,uncommon,5.0,2,0,354,genesis,100354,25,40,culture,3000000,25,"10,000 torii gates up Mt Inari. Instagram most-photographed Japan site.",Torii donated by businesses — name engraved on back,,0,seed
Garden Route,nature_sanctuary,-33.9,22.5,ZA,uncommon,5.0,2,0,709,genesis,100709,25,40,culture,800000,25,200km coastal paradise. Whale watching. Bungy jumping. Dolphins.,Highest commercial bungy jump in world at Bloukrans Bridge,,0,seed
Georgetown,capital_city,6.801,-58.155,GY,uncommon,5.0,2,0,1080,genesis,101080,25,75,credits,10000000,80,Guyana capital. Amazon adjacent. Oil boom 2015. ExxonMobil discovery.,Poorest country became oil producer overnight — ExxonMobil found offshore,,0,city_seed
Gobi Flaming Cliffs,ancient_ruins,43.7,100.5,MN,uncommon,5.0,2,0,774,genesis,100774,25,45,culture,1500000,25,Bayanzag. First dinosaur eggs found here 1923. Red sandstone.,Roy Chapman Andrews — Indiana Jones inspiration — found eggs here,,0,seed
Gobustan Rock Art,ancient_ruins,40.072,49.369,AZ,uncommon,5.0,2,0,781,genesis,100781,25,45,culture,1500000,25,"UNESCO. 6000 stone carvings. 40,000 years of human presence.",Roman soldier carved graffiti here — most surprising inscription in Caucasus,,0,seed
Gombe Stream,nature_sanctuary,-4.7,29.64,TZ,uncommon,5.0,2,0,703,genesis,100703,25,40,culture,800000,25,Jane Goodall chimp research site since 1960. Smallest park.,Goodall arrived with no degree — just curiosity. Changed primatology,,0,seed
Great Zimbabwe Ruins,ancient_ruins,-20.267,30.933,ZW,uncommon,5.0,2,0,277,genesis,100277,25,45,culture,1500000,25,"Medieval stone city. Capital of Mutapa Kingdom. 11th-15th century. 18,000 people.",Country named after it,,0,seed
Greenland Ice Sheet,glacier,72.0,-40.0,GL,uncommon,5.0,2,0,436,genesis,100436,25,35,freshwater,200000,25,1.7M km² glacier. 3km thick. Will raise oceans 7m if melted.,"If melted, would slow Earth's rotation",,0,seed
Gunung Mulu Caves,cave_system,4.052,114.928,MY,uncommon,5.0,2,0,831,genesis,100831,25,25,materials,200000,25,UNESCO. Sarawak Chamber — world largest cave chamber. Millions of bats.,Deer Cave has world largest bat colony — 3 million bats exit at dusk,,0,seed
Gur-e-Amir Tomb,ancient_ruins,39.647,66.97,UZ,uncommon,5.0,2,0,760,genesis,100760,25,45,culture,1500000,25,Tamerlane mausoleum. Opened 1941 — same day Hitler invaded USSR.,Legend: do not open his tomb or great conqueror will come. Opened June 19 1941. Germany invaded June 22,,0,seed
Gyeongbokgung Palace Seoul,royal_palace,37.579,126.977,KR,uncommon,5.0,2,0,369,genesis,100369,25,70,culture,200000,25,Joseon dynasty 1395. Changing of the guard. 330 building complex.,,,0,seed
Gyeongju Tumuli Park,ancient_ruins,35.82,129.21,KR,uncommon,5.0,2,0,458,genesis,100458,25,45,culture,1500000,25,"Silla dynasty royal burial mounds. UNESCO. 2,000 years of Korean history.",,,0,seed
Ha'amonga Trilithon Tonga,ancient_ruins,-21.046,-175.178,TO,uncommon,5.0,2,0,541,genesis,100541,25,45,culture,1500000,25,Pacific Stonehenge. Coral limestone trilithon. 800 years old.,,,0,seed
Haeinsa Temple Janggyeong Panjeon,religious_site,35.801,128.1,KR,uncommon,5.0,2,0,371,genesis,100371,25,40,culture,3000000,25,"UNESCO. Contains 81,258 Tripitaka Koreana woodblocks — 8 centuries old.",,,0,seed
Hagia Sophia Converted Mosque,religious_site,41.009,28.98,TR,uncommon,5.0,2,0,462,genesis,100462,25,40,culture,3000000,25,Reconverted in 2020. UNESCO outrage. World's most contested heritage.,,,0,seed
Hampi Vijayanagara,ancient_ruins,15.335,76.461,IN,uncommon,5.0,2,0,314,genesis,100314,25,45,culture,1500000,25,"UNESCO. Medieval empire capital. 1,600 monuments over 25 sq km.",,,0,seed
Hawaii Kilauea Lava Ocean Entry,volcano,19.413,-155.288,US,uncommon,5.0,2,0,434,genesis,100434,25,40,energy,300000,25,Lava flowing into Pacific. New land forming in real time.,,,0,seed
Hegra Mada'in Saleh,ancient_ruins,26.81,37.95,SA,uncommon,5.0,2,0,295,genesis,100295,25,45,culture,1500000,25,Nabataean tombs. Older than Petra. Saudi Arabia's first UNESCO site.,"Off-limits to tourists until 2019 — 2,000 years of isolation",,0,seed
Hell Gate National Park,nature_sanctuary,-0.892,36.321,KE,uncommon,5.0,2,0,697,genesis,100697,25,40,culture,800000,25,Geothermal gorge. Can walk/cycle among wildlife — no vehicle.,Inspired the African setting of Disney Lion King,,0,seed
Helsinki Nokia Heritage,tech_giant,60.17,24.935,FI,uncommon,5.0,2,0,952,genesis,100952,25,170,intel,200000,25,"Nokia invented mobile phone here. Failed. Now gaming (Rovio, Supercell).",Nokia market cap was 40% of Finland GDP — then iPhone destroyed them,,0,seed
Hermitage Museum St Petersburg,museum,59.94,30.315,RU,uncommon,5.0,2,0,220,genesis,100220,25,30,culture,2500000,25,3M art objects. One of world's largest museums. Winter Palace.,,,0,seed
Hierapolis Pamukkale,ancient_ruins,37.926,29.126,TR,uncommon,5.0,2,0,730,genesis,100730,25,45,culture,1500000,25,Roman spa city above travertine pools. Necropolis with 1200 tombs.,Cleopatra allegedly bathed in the sacred pool,,0,seed
Himeji Castle Japan,royal_palace,34.839,134.694,JP,uncommon,5.0,2,0,455,genesis,100455,25,70,culture,200000,25,UNESCO. Best-preserved feudal castle in Japan. White Heron Castle. 1333.,,,0,seed
Himeji White Heron Castle,royal_palace,34.839,134.694,JP,uncommon,5.0,2,0,853,genesis,100853,25,70,culture,200000,25,UNESCO. Best preserved feudal castle Japan. 1333. Never destroyed.,Painted white specifically to prevent cannon fire — white = no heat absorption,,0,seed
Hollywood Walk of Fame,sports_arena,34.102,-118.34,US,uncommon,5.0,2,0,389,genesis,100389,25,45,culture,200000,25,"2,700+ stars. Grauman's Chinese Theatre. 10M visitors/yr.",,,0,seed
Hong Kong Stock Exchange,stock_exchange,22.279,114.163,HK,uncommon,5.0,2,0,21,genesis,100021,25,85,credits,200000,70,"$5.2T market cap. Gateway between China and world. Tencent, HSBC.",World's largest IPO market in 2022,,0,seed
Hong Kong Victoria Peak,mountain_peak,22.271,114.148,HK,uncommon,5.0,2,0,467,genesis,100467,25,20,culture,100000,25,552m. Best city panorama in world. 7M visitors/yr. Tram.,,,0,seed
Honiara,capital_city,-9.432,160.052,SB,uncommon,5.0,2,0,1092,genesis,101092,25,75,credits,10000000,80,Solomon Islands capital. WWII Guadalcanal battle. Pacific tuna.,Battle of Guadalcanal — turning point of Pacific War — fought here,,0,city_seed
Honolulu,financial_hub,21.307,-157.858,US,uncommon,5.0,2,0,1072,genesis,101072,25,90,credits,5000000,75,Hawaii capital. Pearl Harbor. Pacific crossroads. Aloha culture.,Pearl Harbor attack December 7 1941 brought US into WWII,,0,city_seed
Huangshan Yellow Mountain,mountain_peak,30.13,118.176,CN,uncommon,5.0,2,0,840,genesis,100840,25,20,culture,100000,25,Sea of clouds above granite peaks. UNESCO. Inspired Chinese painting.,"""Four wonders"": strange pines, peculiar rocks, sea of clouds, hot springs",,0,seed
Hue Citadel,royal_palace,16.469,107.579,VN,uncommon,5.0,2,0,817,genesis,100817,25,70,culture,200000,25,UNESCO. Nguyen dynasty. Forbidden City of Vietnam.,Heavily damaged in 1968 Tet Offensive — still being restored,,0,seed
Hue Imperial Citadel,royal_palace,16.469,107.579,VN,uncommon,5.0,2,0,340,genesis,100340,25,70,culture,200000,25,Forbidden Purple City. Nguyen dynasty. 7km walls. UNESCO.,,,0,seed
Hunza Valley,mountain_peak,36.316,74.647,PK,uncommon,5.0,2,0,800,genesis,100800,25,20,culture,100000,25,Shangri-La inspiration? 100+ year old residents. Karakorum views.,James Hilton based Lost Horizon on traveler accounts of this valley,,0,seed
Hustai National Park,nature_sanctuary,47.713,105.878,MN,uncommon,5.0,2,0,773,genesis,100773,25,40,culture,800000,25,Last truly wild Przewalski horse herds. Reintroduced 1992.,These are the only truly wild horses — all others descended from domesticated,,0,seed
IAEA Vienna,international_org,48.236,16.406,AT,uncommon,5.0,2,0,115,genesis,100115,25,80,intel,200000,25,Monitors nuclear programs globally. Iran deal negotiated here.,,,0,seed
ICC The Hague,international_org,52.085,4.316,NL,uncommon,5.0,2,0,114,genesis,100114,25,80,intel,200000,25,International Criminal Court. War crimes tribunal. Putin arrest warrant issued.,,,0,seed
Iowa Corn Belt Center,agri_megafarm,42.0,-94.0,US,uncommon,5.0,2,0,124,genesis,100124,25,50,food,200000,25,Heart of US corn belt. 12B bushels/yr. Global food price driver.,,,0,seed
Itsukushima Shrine,religious_site,34.296,132.32,JP,uncommon,5.0,2,0,456,genesis,100456,25,40,culture,3000000,25,Floating torii gate. UNESCO. Sacred island of Miyajima.,No births or deaths allowed on sacred island,,0,seed
Jabal al-Lawz,mountain_peak,28.65,35.3,SA,uncommon,5.0,2,0,751,genesis,100751,25,20,culture,100000,25,"2,580m. Possible real Mount Sinai. Black scorched peak. Lightning strikes.",Some believe Moses received Ten Commandments here not Egypt Sinai,,0,seed
Jaisalmer Golden Fort,royal_palace,26.912,70.912,IN,uncommon,5.0,2,0,316,genesis,100316,25,70,culture,200000,25,"Living fort — 3,000 people live inside. Yellow sandstone. 12th century.",,,0,seed
Japan Exchange Group Tokyo,stock_exchange,35.682,139.771,JP,uncommon,5.0,2,1,19,genesis,100019,25,85,credits,200000,70,"$6.9T market cap. Toyota, Sony, SoftBank, Honda.",Merged Tokyo + Osaka exchanges in 2013,,0,seed
Jebel Ali Port Dubai,mega_port,24.98,55.07,AE,uncommon,5.0,2,0,211,genesis,100211,25,60,credits,200000,60,14M TEU/yr. Largest port in Middle East. Man-made.,,,0,seed
Jeju Island Hallasan,volcano,33.362,126.534,KR,uncommon,5.0,2,0,370,genesis,100370,25,40,energy,300000,25,South Korea's highest peak. UNESCO. Lava tubes. New 7 Wonders.,,,0,seed
Jeju Lava Tubes,cave_system,33.38,126.538,KR,uncommon,5.0,2,0,861,genesis,100861,25,25,materials,200000,25,UNESCO. World longest lava tube system. Dragon head rock.,160km of lava tubes — most connected in world,,0,seed
Jerash Roman City,ancient_ruins,32.273,35.902,JO,uncommon,5.0,2,0,294,genesis,100294,25,45,culture,1500000,25,Best preserved Roman city in world outside Italy. Ongoing Roman games.,,,0,seed
Jiuzhaigou Fairy Lakes,nature_sanctuary,33.26,103.918,CN,uncommon,5.0,2,0,839,genesis,100839,25,40,culture,800000,25,UNESCO. Multi-colored lakes — minerals create palette.,Earthquake 2017 drained some lakes. Restored and reopened.,https://upload.wikimedia.org/wikipedia/commons/thumb/3/3b/Jiuzhaigou.jpg/640px-Jiuzhaigou.jpg,0,seed
Jiuzhaigou Fairy Pools,nature_sanctuary,33.262,103.918,CN,uncommon,5.0,2,0,630,genesis,100630,25,40,culture,800000,25,UNESCO. Turquoise layered lakes. Five Flower Lake. Panda habitat.,,https://upload.wikimedia.org/wikipedia/commons/thumb/5/5b/Jiuzhaigou_Five_Flower_Lake.jpg/640px-Jiuzhaigou_Five_Flower_Lake.jpg,0,seed
Jiuzhaigou Valley,nature_sanctuary,33.262,103.918,CN,uncommon,5.0,2,0,363,genesis,100363,25,40,culture,800000,25,"Multi-colored lakes. UNESCO. Closed after 2017 earthquake, reopened.",Nine Tibetan villages in the valley — most evacuated for tourism,,0,seed
K2,mountain_peak,35.88,76.514,PK,uncommon,5.0,2,0,172,genesis,100172,25,20,culture,100000,25,"8,611m. Second highest. Deadliest — 1 death per 4 summits.",Never summited in winter until 2021 (Nepal team),,0,seed
Kakadu National Park,nature_sanctuary,-12.85,132.471,AU,uncommon,5.0,2,0,447,genesis,100447,25,40,culture,800000,25,"UNESCO. 65,000 years Aboriginal occupation. 50,000+ rock art sites.",,,0,seed
Kakadu Rock Art Sites,ancient_ruins,-12.85,132.471,AU,uncommon,5.0,2,0,538,genesis,100538,25,45,culture,1500000,25,"50,000+ rock art sites. 65,000 year old oldest art. UNESCO.",,https://upload.wikimedia.org/wikipedia/commons/thumb/0/0d/Kakadu_rock_art.jpg/640px-Kakadu_rock_art.jpg,0,seed
Karakorum Ancient Capital,ancient_ruins,47.195,102.845,MN,uncommon,5.0,2,0,376,genesis,100376,25,45,culture,1500000,25,Genghis Khan's capital. Erdene Zuu monastery from ruins. UNESCO.,,,0,seed
Karakorum Erdene Zuu,ancient_ruins,47.195,102.845,MN,uncommon,5.0,2,0,864,genesis,100864,25,45,culture,1500000,25,Genghis Khan capital. Monastery from ruins. Wall of 108 stupas.,First capital of world largest empire ever — now sheep graze over ruins,,0,seed
Karakorum Highway,mountain_peak,35.0,76.0,PK,uncommon,5.0,2,0,801,genesis,100801,25,20,culture,100000,25,"World's highest international road. 4,714m Khunjerab Pass.",810 Pakistani and 82 Chinese workers died building it,,0,seed
Karnak Temple,ancient_ruins,25.719,32.657,EG,uncommon,5.0,2,0,685,genesis,100685,25,45,culture,1500000,25,Largest ancient religious complex. 30 pharaohs built it over 2000 years.,Only Luxor Temple rivals it,,0,seed
Karnak Temple Complex,religious_site,25.719,32.658,EG,uncommon,5.0,2,0,244,genesis,100244,25,40,culture,3000000,25,"Largest ancient religious site. Built over 2,000 years by 30 pharaohs.",,,0,seed
Karst Mountains Yangshuo,nature_sanctuary,24.778,110.494,CN,uncommon,5.0,2,0,365,genesis,100365,25,40,culture,800000,25,Limestone peaks rising from rice paddies. Cycling paradise.,,,0,seed
Kashgar Sunday Market,financial_hub,39.473,75.993,CN,uncommon,5.0,2,0,848,genesis,100848,25,90,credits,5000000,75,Ancient Silk Road terminus. Central Asian bazaar unchanged.,Marco Polo described same market — it looks identical today,,0,seed
Kerala Backwaters,nature_sanctuary,9.5,76.35,IN,uncommon,5.0,2,0,317,genesis,100317,25,40,culture,800000,25,900km canal network. Houseboat culture. Unique ecosystem.,,,0,seed
Khajuraho Temples,religious_site,24.851,79.921,IN,uncommon,5.0,2,0,616,genesis,100616,25,40,culture,3000000,25,UNESCO. Erotic temple carvings 950-1050 AD. Tantric philosophy in stone.,,https://upload.wikimedia.org/wikipedia/commons/thumb/2/2e/Kandariya_Mahadeva_temple.jpg/640px-Kandariya_Mahadeva_temple.jpg,0,seed
Khan Tengri Peak,mountain_peak,42.215,80.175,KZ,uncommon,5.0,2,0,771,genesis,100771,25,20,culture,100000,25,"7,010m. Marble summit glows red at sunset. Called Pyramid of Heaven.","Rarest high-altitude peak — only 1000 people have summited vs 10,000 for Everest",,0,seed
Khao Yai National Park,nature_sanctuary,14.43,101.37,TH,uncommon,5.0,2,0,813,genesis,100813,25,40,culture,800000,25,"UNESCO. Gibbons, elephants, hornbills, tigers.",UNESCO listed — first national park in Thailand 1962,,0,seed
Khustain Nuruu Horse,nature_sanctuary,47.713,105.878,MN,uncommon,5.0,2,0,865,genesis,100865,25,40,culture,800000,25,Last wild Przewalski horses. Hunted extinct — reintroduced 1992.,Takhi (Mongolian for spirit horse) brought back from extinction in zoos,,0,seed
Kilimanjaro,mountain_peak,-3.065,37.355,TZ,uncommon,5.0,2,0,173,genesis,100173,25,20,culture,100000,25,"5,895m. Africa's highest. Glacier shrinking 80% since 1912.",,,0,seed
Kilwa Kisiwani,ancient_ruins,-8.963,39.511,TZ,uncommon,5.0,2,0,597,genesis,100597,25,45,culture,1500000,25,UNESCO. Medieval Swahili trading empire. Ibn Battuta called it most beautiful.,Traded gold from Zimbabwe to Arabia and India,,0,seed
Kinabalu Park,mountain_peak,6.076,116.558,MY,uncommon,5.0,2,0,830,genesis,100830,25,20,culture,100000,25,"UNESCO. 4,095m. Most species-rich spot in world. Pitcher plants.","5,000 plant species — more than UK and Ireland combined",,0,seed
Kingstown,capital_city,13.158,-61.225,VC,uncommon,5.0,2,0,1102,genesis,101102,25,75,credits,10000000,80,St Vincent capital. Pirates of Caribbean filmed nearby.,Disney Pirates of Caribbean filmed on its beaches — Jack Sparrow territory,,0,city_seed
Kinkaku-ji Golden Pavilion,religious_site,35.04,135.729,JP,uncommon,5.0,2,0,457,genesis,100457,25,40,culture,3000000,25,Gold-leaf covered temple. Kyoto icon. Burned by monk in 1950 — rebuilt.,,,0,seed
Knossos Palace Crete,ancient_ruins,35.298,25.163,GR,uncommon,5.0,2,0,885,genesis,100885,25,45,culture,1500000,25,Minoan civilization 2700 BC. Labyrinth of Minotaur legend.,Labyrinth myth may come from actual complex underground passages,,0,seed
Ko Ker Temple,ancient_ruins,13.795,104.648,KH,uncommon,5.0,2,0,823,genesis,100823,25,45,culture,1500000,25,Remote pyramid temple. 35m step pyramid. 11th century Khmer.,Jungle reclaimed it for 900 years — discovered by accident,,0,seed
Komodo Dragon Island,nature_sanctuary,-8.562,119.48,ID,uncommon,5.0,2,0,648,genesis,100648,25,40,culture,800000,25,"Last dinosaur-like reptile. 3m, 90kg. UNESCO. 4,000 surviving.",,https://upload.wikimedia.org/wikipedia/commons/thumb/b/b5/Komodo_dragon.jpg/640px-Komodo_dragon.jpg,0,seed
Komodo Island,nature_sanctuary,-8.562,119.48,ID,uncommon,5.0,2,0,346,genesis,100346,25,40,culture,800000,25,"Komodo dragons — 3m, 90kg. 4,000 left in wild. UNESCO marine park.",,,0,seed
Konark Sun Temple,ancient_ruins,19.888,86.094,IN,uncommon,5.0,2,0,617,genesis,100617,25,45,culture,1500000,25,UNESCO. Giant stone chariot 1255 AD. Black Pagoda. 12 wheels = calendar.,,,0,seed
Korea Exchange KRX,stock_exchange,35.159,129.06,KR,uncommon,5.0,2,0,30,genesis,100030,25,85,credits,200000,70,"$2.2T market cap. Samsung, Hyundai, LG Electronics.",,,0,seed
Kruger National Park,nature_sanctuary,-23.989,31.554,ZA,uncommon,5.0,2,0,273,genesis,100273,25,40,culture,800000,25,South Africa's largest park. Big Five. 500 bird species.,,,0,seed
Kyoto Arashiyama Bamboo,ancient_forest,35.017,135.671,JP,uncommon,5.0,2,0,357,genesis,100357,25,35,food,200000,25,Bamboo grove. Tenryu-ji garden. Monkey mountain. Scenic train.,,,0,seed
Kīlauea Volcano,volcano,19.421,-155.287,US,uncommon,5.0,2,0,181,genesis,100181,25,40,energy,300000,25,Most active volcano on Earth. Continuously erupting since 1983.,,,0,seed
Lagos Island,financial_hub,6.453,3.424,NG,uncommon,5.0,2,0,713,genesis,100713,25,90,credits,5000000,75,Most populous city in Africa. 21M+ people. Africa financial capital.,Has its own timezone in terms of cultural influence across continent,,0,seed
Lagos Port Complex,mega_port,6.425,3.391,NG,uncommon,5.0,2,0,474,genesis,100474,25,60,credits,200000,60,West Africa's largest port. Gateway for Nigeria's $450B economy.,,https://upload.wikimedia.org/wikipedia/commons/thumb/1/1e/Lagos_port.jpg/640px-Lagos_port.jpg,0,seed
Lahore Fort,royal_palace,31.588,74.316,PK,uncommon,5.0,2,0,798,genesis,100798,25,70,culture,200000,25,UNESCO. Mughal and Sikh fort. 21 notable buildings over 900 years.,"Every invader added to it — Mughal, Sikh, British all left marks",,0,seed
Lalibela Churches,religious_site,12.032,39.044,ET,uncommon,5.0,2,0,598,genesis,100598,25,40,culture,3000000,25,11 monolithic churches carved from single rock. Ethiopia's Jerusalem.,,https://upload.wikimedia.org/wikipedia/commons/thumb/0/07/Lalibela_churches.jpg/640px-Lalibela_churches.jpg,0,seed
Leptis Magna Libya,ancient_ruins,32.639,14.291,LY,uncommon,5.0,2,0,592,genesis,100592,25,45,culture,1500000,25,Best-preserved Roman city in Africa. Birthplace of Emperor Septimius Severus.,,https://upload.wikimedia.org/wikipedia/commons/thumb/a/a1/Leptis_Magna.jpg/640px-Leptis_Magna.jpg,0,seed
Leshan Giant Buddha,religious_site,29.544,103.767,CN,uncommon,5.0,2,0,625,genesis,100625,25,40,culture,3000000,25,World's largest stone Buddha. 71m. UNESCO. Tang dynasty 713 AD.,,https://upload.wikimedia.org/wikipedia/commons/thumb/6/6e/Leshan_Buddha.jpg/640px-Leshan_Buddha.jpg,0,seed
Lewa Conservancy,nature_sanctuary,0.2,37.45,KE,uncommon,5.0,2,0,699,genesis,100699,25,40,culture,800000,25,Rhino sanctuary. 14% of Kenya black rhino. Community model.,Prince William proposed to Kate Middleton here,,0,seed
Lilongwe,capital_city,-13.967,33.787,MW,uncommon,5.0,2,0,1089,genesis,101089,25,75,credits,10000000,80,Malawi capital. Warm heart of Africa. Lake Malawi cichlids.,Lake Malawi has more fish species than any lake — 1000+ cichlid species,,0,city_seed
Lofoten Islands Norway,nature_sanctuary,68.154,13.987,NO,uncommon,5.0,2,0,510,genesis,100510,25,40,culture,800000,25,Arctic archipelago. Midnight sun. Northern Lights. Cod fishing heritage.,,https://upload.wikimedia.org/wikipedia/commons/thumb/2/2c/Lofoten_reine.jpg/640px-Lofoten_reine.jpg,0,seed
Lomé,capital_city,6.136,1.222,TG,uncommon,5.0,2,0,1096,genesis,101096,25,75,credits,10000000,80,Togo capital. Atlantic coast. Voodoo market. Phosphate exports.,Lomé accords 1975 — first major EU-Africa trade agreement signed here,,0,city_seed
London Stock Exchange,stock_exchange,51.514,-0.099,GB,uncommon,5.0,2,0,20,genesis,100020,25,85,credits,200000,70,"$5.9T market cap. Oldest major exchange. FTSE 100. HSBC, BP, Unilever.",Founded 1801. Lost world #1 to NYSE after WW1,,0,seed
Longji Rice Terraces,agri_megafarm,25.773,110.08,CN,uncommon,5.0,2,0,368,genesis,100368,25,50,food,200000,25,"Dragon's Backbone. 2,300 years of Zhuang minority farming. Breathtaking curves.",,,0,seed
Longmen Grottoes,ancient_ruins,34.56,112.474,CN,uncommon,5.0,2,0,626,genesis,100626,25,45,culture,1500000,25,"UNESCO. 2,345 caves. 110,000 Buddhist stone sculptures. Tang dynasty.",,https://upload.wikimedia.org/wikipedia/commons/thumb/1/1e/Longmen_Grottoes.jpg/640px-Longmen_Grottoes.jpg,0,seed
Lopé National Park,ancient_forest,-0.12,11.59,GA,uncommon,5.0,2,0,724,genesis,100724,25,35,food,200000,25,UNESCO. Last refuge forest elephants. Ancient iron smelting.,Unique mosaic of savanna and rainforest,,0,seed
Lumbini,religious_site,27.484,83.276,NP,uncommon,5.0,2,0,321,genesis,100321,25,40,culture,3000000,25,"UNESCO. Birthplace of Buddha. 2,500+ years. 32 countries' temples.",,,0,seed
Luxor Temple,ancient_ruins,25.7,32.639,EG,uncommon,5.0,2,0,686,genesis,100686,25,45,culture,1500000,25,"New Kingdom temple. Romans, Christians, Muslims all added to it.",Alexander the Great claimed to be son of Amun here,,0,seed
Maasai Mara Kenya,nature_sanctuary,-1.507,35.145,KE,uncommon,5.0,2,0,580,genesis,100580,25,40,culture,800000,25,Big Five. Great Migration crossing.,,https://upload.wikimedia.org/wikipedia/commons/thumb/7/7f/Masai_Mara_Africa.jpg/640px-Masai_Mara_Africa.jpg,0,seed
Madaba Mosaic Map,ancient_ruins,31.717,35.793,JO,uncommon,5.0,2,0,742,genesis,100742,25,45,culture,1500000,25,Byzantine mosaic of Holy Land. 6th century. 2M tesserae.,Oldest surviving map of Jerusalem — still in church floor,,0,seed
Madagascar Rainforest,ancient_forest,-18.913,47.536,MG,uncommon,5.0,2,0,439,genesis,100439,25,35,food,200000,25,5% of world biodiversity. 90% endemic species. Lemurs only here.,,,0,seed
Majuro,capital_city,7.1,171.383,MH,uncommon,5.0,2,0,1086,genesis,101086,25,75,credits,10000000,80,Marshall Islands. Nuclear test site legacy. WWII Pacific battle.,US tested 67 nuclear bombs here 1946-1958 — residents still contaminated,,0,city_seed
Maldives Baa Atoll,coral_reef,5.06,73.0,MV,uncommon,5.0,2,0,620,genesis,100620,25,45,food,200000,25,"UNESCO Biosphere. Manta ray aggregation. Whale sharks. 1,192 islands.",Will be completely submerged within 50 years,https://upload.wikimedia.org/wikipedia/commons/thumb/3/3e/Maldives_aerial.jpg/640px-Maldives_aerial.jpg,0,seed
Managua,capital_city,12.138,-86.274,NI,uncommon,5.0,2,0,1090,genesis,101090,25,75,credits,10000000,80,Nicaragua capital. Sandinista history. Ortega dictatorship.,Earthquake 1972 destroyed entire city center — never rebuilt as punishment,,0,city_seed
Maracanã Rio de Janeiro,sports_arena,-22.912,-43.23,BR,uncommon,5.0,2,0,81,genesis,100081,25,45,culture,200000,25,"78,838 seats. Brazil football cathedral. 1950 WC disgrace.","1950 WC final: 199,854 people in stadium",,0,seed
Marae Taputapuatea Society Islands,religious_site,-16.774,-151.414,PF,uncommon,5.0,2,0,542,genesis,100542,25,40,culture,3000000,25,UNESCO. Sacred Polynesian marae. Star navigation school. Polynesian dispersal origin.,,,0,seed
Margiana Archaeological Park,ancient_ruins,37.5,62.1,TM,uncommon,5.0,2,0,764,genesis,100764,25,45,culture,1500000,25,Bronze Age Bactria-Margiana culture. 4000 years old. Discovered 1970s.,Contemporary of early Egypt and Mesopotamia — unknown civilization,,0,seed
Masada Fortress,ancient_ruins,31.315,35.353,IL,uncommon,5.0,2,0,303,genesis,100303,25,45,culture,1500000,25,Herod's fortress. 960 Jewish rebels committed mass suicide vs. Romans 73 AD.,Masada shall not fall again — Israeli army oath,,0,seed
Maseru,capital_city,-29.318,27.483,LS,uncommon,5.0,2,0,1084,genesis,101084,25,75,credits,10000000,80,Lesotho capital. Landlocked kingdom inside South Africa.,One of only 3 countries completely surrounded by one other country,,0,city_seed
Mashhad Imam Reza Shrine,religious_site,36.284,59.617,IR,uncommon,5.0,2,0,601,genesis,100601,25,40,culture,3000000,25,Most visited Islamic site after Mecca. 30M pilgrims/yr. Gold dome.,,https://upload.wikimedia.org/wikipedia/commons/thumb/7/79/Imam_Reza_shrine.jpg/640px-Imam_Reza_shrine.jpg,0,seed
Mayon Volcano Albay,volcano,13.257,123.686,PH,uncommon,5.0,2,0,353,genesis,100353,25,40,energy,300000,25,"Most perfect volcanic cone. 2,463m. Most active in Philippines.",,,0,seed
Mbabane,capital_city,-26.318,31.144,SZ,uncommon,5.0,2,0,1095,genesis,101095,25,75,credits,10000000,80,Eswatini capital. Last absolute monarchy in Africa.,King Mswati III renamed country Swaziland to Eswatini 2018 — surprise announcement,,0,city_seed
McLeod Ganj Dharamsala,religious_site,32.22,76.323,IN,uncommon,5.0,2,0,791,genesis,100791,25,40,culture,3000000,25,Tibetan government in exile. Dalai Lama residence since 1960.,Tibet in India — entire culture preserved here after Chinese invasion,,0,seed
Medellín,financial_hub,6.244,-75.574,CO,uncommon,5.0,2,0,1049,genesis,101049,25,90,credits,5000000,75,Pablo Escobar birth. Transformed to smartest city. Cable cars and libraries.,Most transformed city in world — murder capital to Innovation City of Year 2013,,0,city_seed
Mekong Delta Vietnam,agri_megafarm,10.5,105.6,VN,uncommon,5.0,2,0,126,genesis,100126,25,50,food,200000,25,Southeast Asia rice bowl. 25M tons rice/yr. 18M people.,,,0,seed
Melbourne Cricket Ground,sports_arena,-37.82,144.984,AU,uncommon,5.0,2,0,77,genesis,100077,25,45,culture,200000,25,"Southern hemisphere's largest. 100,024 capacity. Boxing Day Test.",,,0,seed
Merapi Volcano Java,volcano,-7.541,110.446,ID,uncommon,5.0,2,0,429,genesis,100429,25,40,energy,300000,25,"Most active in Indonesia. 800,000 live in danger zone.",,,0,seed
Meroe Pyramids,ancient_ruins,16.934,33.749,SD,uncommon,5.0,2,0,691,genesis,100691,25,45,culture,1500000,25,200+ Nubian pyramids. More pyramids than Egypt. UNESCO.,Kingdom lasted 1000 years after Egypt pyramids — mostly forgotten,,0,seed
Mesa Verde Cliff Dwellings,ancient_ruins,37.182,-108.479,US,uncommon,5.0,2,0,548,genesis,100548,25,45,culture,1500000,25,UNESCO. Ancestral Puebloan cliff dwellings 1190 AD. Colorado.,,https://upload.wikimedia.org/wikipedia/commons/thumb/c/c8/Mesa_Verde_Cliff_Palace.jpg/640px-Mesa_Verde_Cliff_Palace.jpg,0,seed
Meta Menlo Park,tech_giant,37.484,-122.148,US,uncommon,5.0,2,0,225,genesis,100225,25,170,intel,200000,25,"Facebook/Meta. 3.3B users. WhatsApp, Instagram, Oculus.",,,0,seed
Meteora Monasteries,religious_site,39.721,21.631,GR,uncommon,5.0,2,0,401,genesis,100401,25,40,culture,3000000,25,6 monasteries on rock pillars. UNESCO. James Bond filmed here.,Monks reached them only via rope nets until 1920s,https://upload.wikimedia.org/wikipedia/commons/thumb/8/8e/Meteora_Greece.jpg/640px-Meteora_Greece.jpg,0,seed
Mgahinga Gorilla Park,nature_sanctuary,-1.37,29.66,UG,uncommon,5.0,2,1,706,genesis,100706,25,40,culture,800000,25,Three-country border park. Golden monkeys. Mountain gorillas.,Sits on Rwanda-Uganda-DRC triple border point,,0,seed
Microsoft Redmond Campus,tech_giant,47.644,-122.124,US,uncommon,5.0,2,0,226,genesis,100226,25,170,intel,200000,25,"500+ buildings. 50,000 employees. Azure cloud HQ.",,,0,seed
Milford Sound New Zealand,nature_sanctuary,-44.641,167.897,NZ,uncommon,5.0,2,0,649,genesis,100649,25,40,culture,800000,25,"Fiordland. Cliffs 1,200m. Mitre Peak. Dolphins. Seals.",,https://upload.wikimedia.org/wikipedia/commons/thumb/f/f9/Milford_Sound.jpg/640px-Milford_Sound.jpg,0,seed
Mirissa Whale Watching,nature_sanctuary,5.943,80.456,LK,uncommon,5.0,2,0,806,genesis,100806,25,40,culture,800000,25,Blue whale watching. Largest animal ever. Spinner dolphins.,Best place in world to see blue whales — can see 4-5 at once,,0,seed
Monrovia,capital_city,6.3,-10.797,LR,uncommon,5.0,2,0,1083,genesis,101083,25,75,credits,10000000,80,Founded by freed American slaves. Named after President Monroe.,Founded by freed US slaves — only African country named after US president,,0,city_seed
Mont Blanc,mountain_peak,45.833,6.865,FR,uncommon,5.0,2,0,174,genesis,100174,25,20,culture,100000,25,"4,808m. Highest in Alps and Western Europe.",France and Italy dispute exact summit location,,0,seed
Monteverde Cloud Forest,ancient_forest,10.302,-84.793,CR,uncommon,5.0,2,0,912,genesis,100912,25,35,food,200000,25,Cloud forest reserve. 400 bird species. Quetzal. No roads 1970s.,Quakers from Alabama settled here 1951 — no roads — to refuse military service,,0,seed
Montserrat Black Madonna,religious_site,41.593,1.84,ES,uncommon,5.0,2,0,878,genesis,100878,25,40,culture,3000000,25,Catalan national shrine. Black Virgin found by shepherds.,Legend: Golden Globe hidden here by monks 1936 to save from Franco,,0,seed
Montserrat Monastery Spain,religious_site,41.593,1.84,ES,uncommon,5.0,2,0,671,genesis,100671,25,40,culture,3000000,25,Sacred mountain monastery. Black Madonna. Catalan nationalist symbol.,,https://upload.wikimedia.org/wikipedia/commons/thumb/5/5d/Montserrat_monastery.jpg/640px-Montserrat_monastery.jpg,0,seed
Moroni,capital_city,-11.702,43.255,KM,uncommon,5.0,2,0,1085,genesis,101085,25,75,credits,10000000,80,Comoros capital. Perfume islands. Most coups per capita.,Has had 20 coups since independence — most coup-prone nation on Earth,,0,city_seed
Mount Ararat,mountain_peak,39.702,44.298,TR,uncommon,5.0,2,0,290,genesis,100290,25,20,culture,100000,25,"5,137m. Where Noah's Ark supposedly landed. Armenian sacred mountain.",Visible from 3 countries. Noah's Ark expeditions still happen,,0,seed
Mount Ararat from Khor Virap,mountain_peak,39.683,44.593,AM,uncommon,5.0,2,0,779,genesis,100779,25,20,culture,100000,25,"5,137m iconic view from Armenian monastery. In Turkish territory.",Can be seen from Yerevan but cannot be visited by Armenians,,0,seed
Mount Bromo Volcano,volcano,-7.942,112.953,ID,uncommon,5.0,2,0,348,genesis,100348,25,40,energy,300000,25,Active volcano in caldera. Sea of sand. Sunrise pilgrimage.,,,0,seed
Mount Cameroon,volcano,4.204,9.17,CM,uncommon,5.0,2,0,714,genesis,100714,25,40,energy,300000,25,"4,040m. Most active West African volcano. Annual race to summit.",Race to the top and back takes winners under 4 hours,,0,seed
Mount Damavand,volcano,35.958,52.109,IR,uncommon,5.0,2,0,310,genesis,100310,25,40,energy,300000,25,"5,610m. Highest volcano in Asia. Highest peak in Iran + Middle East.",,,0,seed
Mount Kenya National Park,mountain_peak,0.151,37.308,KE,uncommon,5.0,2,0,263,genesis,100263,25,20,culture,100000,25,"5,199m. Second highest in Africa. Equatorial glaciers disappearing.",,,0,seed
Mount Olympus,mountain_peak,40.086,22.357,GR,uncommon,5.0,2,0,882,genesis,100882,25,20,culture,100000,25,"2,917m. Home of 12 Olympian gods in mythology. National park.",Gods supposedly lived here — humans could never reach summit until 1913,,0,seed
Mount Pinatubo Crater Lake,volcano,15.143,120.35,PH,uncommon,5.0,2,0,640,genesis,100640,25,40,energy,300000,25,1991 eruption created 800m crater lake. Healing. Stunning.,,https://upload.wikimedia.org/wikipedia/commons/thumb/d/d9/Pinatubo_crater_lake.jpg/640px-Pinatubo_crater_lake.jpg,0,seed
Musandam Fjords,nature_sanctuary,26.2,56.34,OM,uncommon,5.0,2,0,754,genesis,100754,25,40,culture,800000,25,Arabia Norway. Dramatic fjords. Dolphins. Rare geologic formation.,Oman territory completely separated from rest of country by UAE,,0,seed
Musandam Fjords Oman,nature_sanctuary,26.2,56.3,OM,uncommon,5.0,2,0,606,genesis,100606,25,40,culture,800000,25,Arabia's Norway. Dramatic fjords. Dolphins. Strategic Hormuz position.,,https://upload.wikimedia.org/wikipedia/commons/thumb/c/c1/Musandam_Khasab.jpg/640px-Musandam_Khasab.jpg,0,seed
My Son Hindu Sanctuary,ancient_ruins,15.773,108.128,VN,uncommon,5.0,2,0,341,genesis,100341,25,45,culture,1500000,25,Cham temple complex. 4th-13th century. Partially destroyed by US bombs.,,,0,seed
NASDAQ Times Square,stock_exchange,40.756,-73.987,US,uncommon,5.0,2,0,17,genesis,100017,25,85,credits,200000,70,"$21T+ market cap. World's first electronic exchange. Apple, Microsoft, Google.",No physical trading floor — purely electronic,,0,seed
NVIDIA Santa Clara,tech_giant,37.352,-121.985,US,uncommon,5.0,2,0,231,genesis,100231,25,170,intel,200000,25,AI chip monopoly. $3T+ valuation. H100 GPU controls AI.,Jensen Huang started in a Denny's booth,,0,seed
Nan Madol Micronesia,ancient_ruins,6.844,158.34,FM,uncommon,5.0,2,0,540,genesis,100540,25,45,culture,1500000,25,Venice of the Pacific. Artificial island city 1200 AD. UNESCO.,Stones weigh up to 50 tons — brought by canoe from distant islands,,0,seed
Naoshima Art Island,museum,34.46,133.99,JP,uncommon,5.0,2,0,634,genesis,100634,25,30,culture,2500000,25,Contemporary art island. Benesse House. Yayoi Kusama pumpkins.,,https://upload.wikimedia.org/wikipedia/commons/thumb/b/b4/Naoshima_art_island.jpg/640px-Naoshima_art_island.jpg,0,seed
Nara Deer Park,ancient_ruins,34.682,135.838,JP,uncommon,5.0,2,0,851,genesis,100851,25,45,culture,1500000,25,"1,300 sacred deer roam free. Todai-ji. 8th century capital.",Deer are considered divine messengers — protected by law since 768 AD,https://upload.wikimedia.org/wikipedia/commons/thumb/d/de/Nara_deer.jpg/640px-Nara_deer.jpg,0,seed
Nara Todai-ji Temple,religious_site,34.689,135.84,JP,uncommon,5.0,2,0,356,genesis,100356,25,40,culture,3000000,25,World's largest wooden building. 15m bronze Buddha. Sacred deer roam freely.,,,0,seed
Nasir al-Mulk Mosque Shiraz,religious_site,29.608,52.535,IR,uncommon,5.0,2,0,311,genesis,100311,25,40,culture,3000000,25,Pink Mosque. Stunning stained glass rainbow light play. 1888.,,,0,seed
Nemrut Dağ,ancient_ruins,37.981,38.741,TR,uncommon,5.0,2,0,728,genesis,100728,25,45,culture,1500000,25,"2,150m summit. Giant stone heads of gods and king. 1st century BC.",Heads were knocked off by earthquakes — bodies still buried,,0,seed
Neuschwanstein Castle,royal_palace,47.558,10.75,DE,uncommon,5.0,2,0,405,genesis,100405,25,70,culture,200000,25,Mad King Ludwig's fairy tale castle 1869. Disneyland inspiration. 1.5M/yr.,Basis for Sleeping Beauty Castle in Disneyland,,0,seed
Ngorongoro Crater Tanzania,nature_sanctuary,-3.22,35.5,TZ,uncommon,5.0,2,0,583,genesis,100583,25,40,culture,800000,25,"World's largest intact caldera. 30,000 animals.",,https://upload.wikimedia.org/wikipedia/commons/thumb/7/73/Ngorongoro_Crater.jpg/640px-Ngorongoro_Crater.jpg,0,seed
Niamey,capital_city,13.512,2.125,NE,uncommon,5.0,2,0,1073,genesis,101073,25,75,credits,10000000,80,Niger capital. Uranium deposits. Sahel hub. 2023 military coup.,Niger controls 7% of world uranium — France dependent on it for nuclear power,,0,city_seed
Nikko Tosho-gu,religious_site,36.758,139.598,JP,uncommon,5.0,2,0,854,genesis,100854,25,40,culture,3000000,25,Tokugawa mausoleum. 1000 year cedar forest. Ornate gold shrine.,Deliberately left one pillar inverted — perfection angers gods,,0,seed
Nikko Tosho-gu Shrine,religious_site,36.758,139.598,JP,uncommon,5.0,2,0,359,genesis,100359,25,40,culture,3000000,25,"Tokugawa shogun mausoleum. Ornate gold lacquer. 1,000 year cedar forest.",,,0,seed
Nizwa Fort,royal_palace,22.934,57.531,OM,uncommon,5.0,2,0,756,genesis,100756,25,70,culture,200000,25,17th century. Huge cylindrical tower. Famous goat market.,Largest fort in Oman — had boiling oil channel for attackers,,0,seed
Noravank Monastery,religious_site,39.677,45.23,AM,uncommon,5.0,2,0,778,genesis,100778,25,40,culture,3000000,25,13th century. Red rock canyon. Double staircase church facade.,Armenia has 4000 monasteries — highest density per km² of any religion,,0,seed
OPEC Vienna,international_org,48.209,16.372,AT,uncommon,5.0,2,0,113,genesis,100113,25,80,intel,200000,25,13 countries. Controls 44% of world oil. Sets global prices.,,,0,seed
Oaxaca Monte Albán,ancient_ruins,17.044,-96.768,MX,uncommon,5.0,2,0,551,genesis,100551,25,45,culture,1500000,25,UNESCO. Zapotec capital 500 BC–700 AD. Hilltop astronomical observatory.,,,0,seed
Okefenokee Swamp Georgia,nature_sanctuary,30.7,-82.3,US,uncommon,5.0,2,0,596,genesis,100596,25,40,culture,800000,25,"Largest blackwater swamp in North America. 400,000 alligators. UNESCO Biosphere.",,,0,seed
Okinawa Ryukyu Castle,royal_palace,26.217,127.719,JP,uncommon,5.0,2,0,857,genesis,100857,25,70,culture,200000,25,Ryukyu Kingdom capital. UNESCO. Shuri Castle. Unique architecture.,Burned to ground twice — 1945 WWII and 2019 fire — rebuilt both times,,0,seed
Okinawa Shuri Castle,royal_palace,26.217,127.719,JP,uncommon,5.0,2,0,635,genesis,100635,25,70,culture,200000,25,"Ryukyu Kingdom palace. UNESCO. Burned 1945, rebuilt 1992, burned 2019.",,,0,seed
Olduvai Gorge,ancient_ruins,-2.995,35.35,TZ,uncommon,5.0,2,0,267,genesis,100267,25,45,culture,1500000,25,Cradle of Mankind. 3.6M year old human footprints. Homo habilis found here.,,,0,seed
Olympia Ancient Site,ancient_ruins,37.638,21.63,GR,uncommon,5.0,2,0,880,genesis,100880,25,45,culture,1500000,25,UNESCO. Original Olympic games 776 BC. Zeus temple. Altar.,Winners received olive wreath — but also lifetime stipends and front row seats,,0,seed
Oman Khazaen Economic City,mega_port,23.5,58.0,OM,uncommon,5.0,2,0,531,genesis,100531,25,60,credits,200000,60,Oman's logistics hub. Port Sultan Qaboos. China partnership.,,,0,seed
Omo River Valley,ancient_ruins,5.5,36.2,ET,uncommon,5.0,2,0,586,genesis,100586,25,45,culture,1500000,25,Oldest human fossils. 3.3M year old Lucy found nearby. Hadar.,,,0,seed
Omo Valley Tribes,ancient_ruins,5.8,36.5,ET,uncommon,5.0,2,0,259,genesis,100259,25,45,culture,1500000,25,Last untouched tribal cultures. 16 different ethnic groups.,,,0,seed
Orvieto Cathedral,religious_site,42.718,12.113,IT,uncommon,5.0,2,0,870,genesis,100870,25,40,culture,3000000,25,Striped facade. Luca Signorelli Last Judgement frescoes. 1290.,Built on volcanic tufa rock — underground city of Etruscan tunnels beneath,,0,seed
Ouarzazate Morocco,ancient_ruins,30.92,-6.89,MA,uncommon,5.0,2,0,589,genesis,100589,25,45,culture,1500000,25,"Hollywood of Africa. 50+ films shot here. Gladiator, Game of Thrones.",,https://upload.wikimedia.org/wikipedia/commons/thumb/4/44/Ouarzazate_kasbah.jpg/640px-Ouarzazate_kasbah.jpg,0,seed
Palau Jellyfish Lake,nature_sanctuary,7.154,134.376,PW,uncommon,5.0,2,0,655,genesis,100655,25,40,culture,800000,25,Swim with millions of stingless jellyfish. Unique evolutionary isolation.,Jellyfish evolved to lose their sting — no predators in lake,https://upload.wikimedia.org/wikipedia/commons/thumb/b/b9/Jellyfish_Lake_Palau.jpg/640px-Jellyfish_Lake_Palau.jpg,0,seed
Palawan Underground River,cave_system,10.175,118.81,PH,uncommon,5.0,2,0,641,genesis,100641,25,25,materials,200000,25,UNESCO. World's longest navigable underground river. 8.2km. New 7 Wonder Nature.,,https://upload.wikimedia.org/wikipedia/commons/thumb/9/98/Palawan_Underground_River.jpg/640px-Palawan_Underground_River.jpg,0,seed
Palenque Maya Ruins,ancient_ruins,17.484,-92.046,MX,uncommon,5.0,2,0,552,genesis,100552,25,45,culture,1500000,25,UNESCO. Maya jungle city. Temple of Inscriptions. Lord Pakal tomb.,,,0,seed
Palmyra Ruins,ancient_ruins,34.554,38.287,SY,uncommon,5.0,2,0,749,genesis,100749,25,45,culture,1500000,25,"UNESCO. ""Bride of the Desert"". ISIS demolished. Partly restored.",Syrian archaeologist Khaled al-Asaad beheaded for refusing to reveal artifacts location,,0,seed
Pamir Highway Tajikistan,mountain_peak,37.9,73.8,TJ,uncommon,5.0,2,0,611,genesis,100611,25,20,culture,100000,25,"World's second highest road. 4,655m. M41. Remote. Silk Road legend.",,,0,seed
Pamir Plateau,mountain_peak,38.0,73.5,TJ,uncommon,5.0,2,0,766,genesis,100766,25,20,culture,100000,25,Roof of the World. Average 4000m. Wakhan Corridor.,Where Silk Road crossed — merchants rested before deadly passes,,0,seed
Pampas Grasslands Argentina,agri_megafarm,-34.0,-62.0,AR,uncommon,5.0,2,0,128,genesis,100128,25,50,food,200000,25,South America soy + beef giant. 50M cattle. $24B exports.,,,0,seed
Panama Darien Gap,ancient_forest,7.9,-77.7,PA,uncommon,5.0,2,0,914,genesis,100914,25,35,food,200000,25,Roadless jungle. Only break in Pan-American Highway. Narco territory.,"Only gap in 30,000km road from Alaska to Argentina — intentionally kept roadless",,0,seed
Pantanal Wetlands Brazil,nature_sanctuary,-17.0,-57.0,BR,uncommon,5.0,2,1,446,genesis,100446,25,40,culture,800000,25,"World's largest tropical wetland. 150,000 km². Jaguars. UNESCO.",,,0,seed
Papua New Guinea Highlands,ancient_ruins,-5.886,144.231,PG,uncommon,5.0,2,0,546,genesis,100546,25,45,culture,1500000,25,"800+ languages. 7,000 year old farming valleys. Untouched tribes.",Most linguistically diverse place on Earth,,0,seed
Park Güell Barcelona,nature_sanctuary,41.414,2.153,ES,uncommon,5.0,2,0,398,genesis,100398,25,40,culture,800000,25,Gaudí mosaic park. Dragon staircase. Best Barcelona panorama.,,,0,seed
Pasargadae Cyrus Tomb,ancient_ruins,30.194,53.166,IR,uncommon,5.0,2,0,734,genesis,100734,25,45,culture,1500000,25,"Tomb of Cyrus the Great. 2,500 years old. UNESCO.",Alexander the Great visited and wept here in respect,,0,seed
Pashupatinath Temple,religious_site,27.71,85.349,NP,uncommon,5.0,2,0,320,genesis,100320,25,40,culture,3000000,25,Holiest Hindu temple. Open cremation on Bagmati River. Sadhus.,,,0,seed
Patagonia Fjords Chile,nature_sanctuary,-51.0,-75.0,CL,uncommon,5.0,2,0,445,genesis,100445,25,40,culture,800000,25,"2,000km of fjords. Largest wilderness in South America. Condors.",,,0,seed
Patagonia Marble Caves,cave_system,-46.642,-72.663,CL,uncommon,5.0,2,0,667,genesis,100667,25,25,materials,200000,25,Marble Cathedral. Turquoise water reflections in cave walls.,,https://upload.wikimedia.org/wikipedia/commons/thumb/d/d5/Marble_Caves_Chile.jpg/640px-Marble_Caves_Chile.jpg,0,seed
Patagonia Torres del Paine,nature_sanctuary,-50.938,-73.401,CL,uncommon,5.0,2,0,416,genesis,100416,25,40,culture,800000,25,Granite towers. Glaciers. Pumas. UNESCO Biosphere. End of the world.,,,0,seed
Perfume Pagoda Vietnam,religious_site,20.62,105.72,VN,uncommon,5.0,2,0,819,genesis,100819,25,40,culture,3000000,25,Mountain of fragrant traces. Complex of temples carved in cliffs.,Millions of pilgrims hike here during spring festival,,0,seed
Perito Moreno Glacier,glacier,-50.494,-73.05,AR,uncommon,5.0,2,0,424,genesis,100424,25,35,freshwater,200000,25,One of few advancing glaciers. Bridge for walking on it. UNESCO.,Advances 2m per day and calves in dramatic crashes,,0,seed
Phong Nha Cave Vietnam,cave_system,17.558,106.282,VN,uncommon,5.0,2,0,103,genesis,100103,25,25,materials,200000,25,World's largest cave. 9km explored. 200m high chambers.,,,0,seed
Pinatubo Philippines,volcano,15.143,120.35,PH,uncommon,5.0,2,0,430,genesis,100430,25,40,energy,300000,25,1991 eruption — biggest 20th century. 2°C global cooling. Now crater lake.,,,0,seed
Piton de la Fournaise La Réunion,volcano,-21.244,55.708,RE,uncommon,5.0,2,0,428,genesis,100428,25,40,energy,300000,25,Most active volcano in Indian Ocean. Erupts several times/year.,,,0,seed
Plitvice Lakes Croatia,nature_sanctuary,44.881,15.618,HR,uncommon,5.0,2,0,677,genesis,100677,25,40,culture,800000,25,UNESCO. 16 terraced turquoise lakes. Waterfalls connecting them.,,https://upload.wikimedia.org/wikipedia/commons/thumb/d/dc/Plitvice_Lakes.jpg/640px-Plitvice_Lakes.jpg,0,seed
Plitvice Lakes National Park,nature_sanctuary,44.881,15.618,HR,uncommon,5.0,2,0,511,genesis,100511,25,40,culture,800000,25,UNESCO. 16 terraced lakes. Turquoise waterfalls. Croatia.,,https://upload.wikimedia.org/wikipedia/commons/thumb/d/dc/Plitvice_Lakes.jpg/640px-Plitvice_Lakes.jpg,0,seed
Popocatépetl Mexico,volcano,19.023,-98.622,MX,uncommon,5.0,2,0,431,genesis,100431,25,40,energy,300000,25,El Popo. Active stratovolcano. 25M people in danger zone near Mexico City.,"500,000 people live on its slopes",,0,seed
Port Moresby,capital_city,-9.443,147.18,PG,uncommon,5.0,2,0,1071,genesis,101071,25,75,credits,10000000,80,Most dangerous city in Pacific. 800+ languages in PNG.,Papua New Guinea has 840 languages — 12% of all languages on Earth,,0,city_seed
Port of Rotterdam,mega_port,51.9,4.47,NL,uncommon,5.0,2,0,210,genesis,100210,25,60,credits,200000,60,Europe's largest. 15M TEU/yr. European gateway.,,,0,seed
Potala Palace Lhasa,royal_palace,29.657,91.117,CN,uncommon,5.0,2,0,216,genesis,100216,25,70,culture,200000,25,"Dalai Lama's former palace. 13 stories. 1,000 rooms.",,,0,seed
Prambanan Hindu Temples,religious_site,-7.752,110.491,ID,uncommon,5.0,2,0,345,genesis,100345,25,40,culture,3000000,25,Largest Hindu temple in Indonesia. 9th century. 240 temples.,,,0,seed
Preikestolen Pulpit Rock,mountain_peak,58.986,6.19,NO,uncommon,5.0,2,0,515,genesis,100515,25,20,culture,100000,25,"Flat cliff plateau 604m over Lysefjord. 300,000 hikers/yr.",,https://upload.wikimedia.org/wikipedia/commons/thumb/e/e0/Preikestolen.jpg/640px-Preikestolen.jpg,0,seed
Punakha Dzong,royal_palace,27.592,89.868,BT,uncommon,5.0,2,0,324,genesis,100324,25,70,culture,200000,25,Most beautiful monastery in Bhutan. Confluence of two rivers.,,,0,seed
Punjab Breadbasket India,agri_megafarm,30.7,76.0,IN,uncommon,5.0,2,0,127,genesis,100127,25,50,food,200000,25,Green Revolution heart. 20% of India's wheat and rice.,,,0,seed
Qutub Minar,ancient_ruins,28.525,77.185,IN,uncommon,5.0,2,0,783,genesis,100783,25,45,culture,1500000,25,UNESCO. 73m. Tallest brick minaret. 1193. Iron pillar resists rust 2000 years.,Iron pillar composition still not fully understood by metallurgists,,0,seed
Raja Ampat Archipelago,coral_reef,-0.234,130.523,ID,uncommon,5.0,2,0,347,genesis,100347,25,45,food,200000,25,"World's best diving. 1,500 fish species, 540 coral. Pristine.",Has more coral species than anywhere on Earth,,0,seed
Rani Ki Vav Stepwell,ancient_ruins,23.858,72.101,IN,uncommon,5.0,2,0,786,genesis,100786,25,45,culture,1500000,25,UNESCO. Inverted temple. 11th century. 500 sculptures.,Stepwells built for water storage but became art galleries,,0,seed
Ranthambore Fort,royal_palace,26.017,76.502,IN,uncommon,5.0,2,0,793,genesis,100793,25,70,culture,200000,25,10th century fort. Tigers roam through ruins. UNESCO tentative.,Tiger photographed in front of fort gate — most iconic wildlife photo,,0,seed
Red Fort Delhi,royal_palace,28.656,77.241,IN,uncommon,5.0,2,0,784,genesis,100784,25,70,culture,200000,25,UNESCO. Mughal imperial palace. Independence declared here 1947.,Prime Minister addresses nation from here every Independence Day,,0,seed
Reed Flute Cave Guilin,cave_system,25.305,110.264,CN,uncommon,5.0,2,0,628,genesis,100628,25,25,materials,200000,25,"240m crystal cave. Colored lighting. 1,200 year old graffiti.",,,0,seed
Rila Monastery Bulgaria,religious_site,42.133,23.341,BG,uncommon,5.0,2,0,519,genesis,100519,25,40,culture,3000000,25,UNESCO. Most important Bulgarian monastery. 10th century. Frescoes.,,https://upload.wikimedia.org/wikipedia/commons/thumb/4/48/Rila_monastery.jpg/640px-Rila_monastery.jpg,0,seed
Riyadh NEOM Project,tech_giant,28.09,36.612,SA,uncommon,5.0,2,0,526,genesis,100526,25,170,intel,200000,25,$500B futuristic megacity. The Line: 170km straight city. Zero cars.,The Line will house 9M people in 34 sq km,,0,seed
